[
  {
    "name": "Bãi Dài Cam Ranh",
    "province": "Khánh Hòa",
    "best_months": [
      3,
      4,
      5,
      6,
      7,
      8
    ],
    "tags": [
      "beach",
      "sunset",
      "marine_life",
      "cuisine"
    ],
    "coordinates": [
      109.200,
      11.976
    ]
  },
  {
    "name": "Tháp Bà Ponagar",
    "province": "Khánh Hòa",
    "best_months": [
      1,
      2,
      3,
      4,
      5,
      11,
      12
    ],
    "tags": [
      "historical_site",
      "ceremony",
      "traditional_costume",
      "landmark"
    ],
    "coordinates": [
      109.198,
      12.265
    ]
  },
  {
    "name": "Thành cổ Diên Khánh",
    "province": "Khánh Hòa",
    "best_months": [
      1,
      2,
      3,
      11,
      12
    ],
    "tags": [
      "historical_site",
      "landmark",
      "old_town"
    ],
    "coordinates": [
      109.063,
      12.249
    ]
  },
  {
    "name": "VinWonders Nha Trang",
    "province": "Khánh Hòa",
    "best_months": [
      3,
      4,
      5,
      6,
      7,
      8
    ],
    "tags": [
      "cityscape",
      "landmark",
      "festival",
      "marine_life"
    ],
    "coordinates": [
      109.251,
      12.190
    ]
  },
  {
    "name": "Suối Ba Hồ",
    "province": "Khánh Hòa",
    "best_months": [
      2,
      3,
      4,
      5,
      6
    ],
    "tags": [
      "waterfall",
      "trekking",
      "river",
      "forest"
    ],
    "coordinates": [
      109.215,
      12.395
    ]
  },
  {
    "name": "Đảo Phú Quốc",
    "province": "Kiên Giang",
    "best_months": [
      11,
      12,
      1,
      2,
      3,
      4
    ],
    "tags": [
      "island",
      "beach",
      "marine_life",
      "cuisine",
      "village"
    ],
    "coordinates": [
      103.963,
      10.227
    ]
  },
  {
    "name": "Biển Mũi Nai",
    "province": "Kiên Giang",
    "best_months": [
      1,
      2,
      3,
      11,
      12
    ],
    "tags": [
      "beach",
      "sunset",
      "livestock",
      "local_people"
    ],
    "coordinates": [
      104.457,
      9.448
    ]
  },
  {
    "name": "Chùa Láng Cát",
    "province": "Sóc Trăng",
    "best_months": [
      1,
      2,
      3,
      11,
      12
    ],
    "tags": [
      "traditional_house",
      "ceremony",
      "local_people"
    ],
    "coordinates": [
      105.999,
      9.615
    ]
  },
  {
    "name": "Vườn quốc gia U Minh Thượng",
    "province": "Kiên Giang",
    "best_months": [
      1,
      2,
      3,
      4
    ],
    "tags": [
      "national_park",
      "forest",
      "wildlife",
      "bird",
      "river"
    ],
    "coordinates": [
      105.059,
      9.610
    ]
  },
  {
    "name": "Mộ chị Sứ",
    "province": "An Giang",
    "best_months": [
      1,
      2,
      3,
      11,
      12
    ],
    "tags": [
      "historical_site",
      "ceremony",
      "landmark"
    ],
    "coordinates": [
      105.428,
      10.523
    ]
  },
  {
    "name": "Nhà Thờ Gỗ Kon Tum",
    "province": "Kon Tum",
    "best_months": [
      1,
      2,
      3,
      11,
      12
    ],
    "tags": [
      "traditional_house",
      "historical_site",
      "landmark"
    ],
    "coordinates": [
      107.996,
      14.350
    ]
  },
  {
    "name": "Cầu Treo Kon Klor",
    "province": "Kon Tum",
    "best_months": [
      1,
      2,
      3,
      11,
      12
    ],
    "tags": [
      "bridge",
      "river",
      "landmark"
    ],
    "coordinates": [
      107.993,
      14.373
    ]
  },
  {
    "name": "Vườn Quốc Gia Chư Mom Ray",
    "province": "Kon Tum",
    "best_months": [
      1,
      2,
      3,
      4,
      11,
      12
    ],
    "tags": [
      "national_park",
      "wildlife",
      "forest",
      "bird",
      "trekking"
    ],
    "coordinates": [
      107.642,
      14.402
    ]
  },
  {
    "name": "Đỉnh Ngọc Linh",
    "province": "Kon Tum",
    "best_months": [
      2,
      3,
      4,
      11,
      12
    ],
    "tags": [
      "mountain",
      "trekking",
      "wildlife",
      "weather"
    ],
    "coordinates": [
      108.250,
      15.110
    ]
  },
  {
    "name": "Thác Đắk Tô",
    "province": "Kon Tum",
    "best_months": [
      2,
      3,
      4,
      11,
      12
    ],
    "tags": [
      "waterfall",
      "forest",
      "trekking"
    ],
    "coordinates": [
      107.732,
      14.730
    ]
  },
  {
    "name": "Đèo Ô Quy Hồ",
    "province": "Lào Cai",
    "best_months": [
      2,
      3,
      9,
      10,
      11
    ],
    "tags": [
      "mountain",
      "sky",
      "sunrise",
      "sunset",
      "weather"
    ],
    "coordinates": [
      103.553,
      22.356
    ]
  },
  {
    "name": "Đỉnh Pu Ta Leng",
    "province": "Lai Châu",
    "best_months": [
      2,
      3,
      4,
      10,
      11
    ],
    "tags": [
      "mountain",
      "trekking",
      "forest",
      "cloud",
      "weather"
    ],
    "coordinates": [
      103.509,
      22.363
    ]
  },
  {
    "name": "Cánh đồng Mường Than",
    "province": "Lai Châu",
    "best_months": [
      9,
      10,
      11
    ],
    "tags": [
      "rice_field",
      "village",
      "sunset",
      "local_people"
    ],
    "coordinates": [
      103.632,
      21.788
    ]
  },
  {
    "name": "Hồ Thủy Điện Lai Châu",
    "province": "Lai Châu",
    "best_months": [
      2,
      3,
      4,
      10,
      11
    ],
    "tags": [
      "lake",
      "river",
      "landmark",
      "weather"
    ],
    "coordinates": [
      103.140,
      22.026
    ]
  },
  {
    "name": "Chợ phiên Sìn Hồ",
    "province": "Lai Châu",
    "best_months": [
      1,
      2,
      3,
      10,
      11,
      12
    ],
    "tags": [
      "market",
      "local_people",
      "traditional_costume",
      "cuisine"
    ],
    "coordinates": [
      103.361,
      22.267
    ]
  },
  {
    "name": "Hồ Xuân Hương",
    "province": "Lâm Đồng",
    "best_months": [
      1,
      2,
      3,
      11,
      12
    ],
    "tags": [
      "lake",
      "cityscape",
      "sunrise",
      "cycling"
    ],
    "coordinates": [
      108.439,
      11.941
    ]
  },
  {
    "name": "Thiền Viện Trúc Lâm",
    "province": "Lâm Đồng",
    "best_months": [
      1,
      2,
      3,
      11,
      12
    ],
    "tags": [
      "traditional_house",
      "ceremony",
      "landmark",
      "tree"
    ],
    "coordinates": [
      108.444,
      11.907
    ]
  },
  {
    "name": "Chợ Đêm Đà Lạt",
    "province": "Lâm Đồng",
    "best_months": [
      1,
      2,
      3,
      11,
      12
    ],
    "tags": [
      "market",
      "cuisine",
      "street",
      "street_art",
      "local_people"
    ],
    "coordinates": [
      108.440,
      11.946
    ]
  },
  {
    "name": "Dinh Bảo Đại",
    "province": "Lâm Đồng",
    "best_months": [
      1,
      2,
      3,
      11,
      12
    ],
    "tags": [
      "historical_site",
      "landmark",
      "traditional_house"
    ],
    "coordinates": [
      108.438,
      11.932
    ]
  },
  {
    "name": "Thác Voi",
    "province": "Lâm Đồng",
    "best_months": [
      1,
      2,
      3,
      11,
      12
    ],
    "tags": [
      "waterfall",
      "forest",
      "trekking",
      "bird"
    ],
    "coordinates": [
      108.369,
      11.841
    ]
  },
  {
    "name": "Động Tam Thanh",
    "province": "Lạng Sơn",
    "best_months": [
      10,
      11,
      12,
      1,
      2,
      3
    ],
    "tags": [
      "cave",
      "historical_site",
      "landmark"
    ],
    "coordinates": [
      106.746356,
      21.855806
    ]
  },
  {
    "name": "Chợ Đông Kinh",
    "province": "Lạng Sơn",
    "best_months": [
      3,
      4,
      10,
      11
    ],
    "tags": [
      "market",
      "local_people",
      "cuisine"
    ],
    "coordinates": [
      106.758,
      21.847
    ]
  },
  {
    "name": "Cửa khẩu Hữu Nghị",
    "province": "Lạng Sơn",
    "best_months": [
      3,
      4,
      10,
      11
    ],
    "tags": [
      "landmark",
      "transport",
      "market"
    ],
    "coordinates": [
      106.716,
      21.956
    ]
  },
  {
    "name": "Đèo Bông Lau",
    "province": "Lạng Sơn",
    "best_months": [
      9,
      10,
      11
    ],
    "tags": [
      "mountain",
      "canyon",
      "trekking"
    ],
    "coordinates": [
      106.431672,
      22.431328
    ]
  },
  {
    "name": "Chùa Tiên",
    "province": "Lạng Sơn",
    "best_months": [
      1,
      2,
      3,
      4
    ],
    "tags": [
      "historical_site",
      "landmark",
      "ceremony"
    ],
    "coordinates": [
      106.756901,
      21.836278
    ]
  },
  {
    "name": "Đỉnh Núi Fansipan",
    "province": "Lào Cai",
    "best_months": [
      10,
      11,
      3,
      4
    ],
    "tags": [
      "mountain",
      "trekking",
      "sky",
      "weather"
    ],
    "coordinates": [
      103.775,
      22.30333
    ]
  },
  {
    "name": "Cổng Trời Ô Quy Hồ",
    "province": "Lào Cai",
    "best_months": [
      10,
      11,
      3,
      4
    ],
    "tags": [
      "mountain",
      "sky",
      "sunrise",
      "sunset"
    ],
    "coordinates": [
      103.773,
      22.345
    ]
  },
  {
    "name": "Chợ phiên Bắc Hà",
    "province": "Lào Cai",
    "best_months": [
      3,
      4,
      9,
      10
    ],
    "tags": [
      "market",
      "local_people",
      "traditional_costume",
      "livestock"
    ],
    "coordinates": [
      104.3,
      22.55
    ]
  },
  {
    "name": "Thác Tình Yêu",
    "province": "Lào Cai",
    "best_months": [
      5,
      6,
      9,
      10
    ],
    "tags": [
      "waterfall",
      "forest",
      "trekking"
    ],
    "coordinates": [
      103.773,
      22.345
    ]
  },
  {
    "name": "Đền Thượng",
    "province": "Lạng Sơn",
    "best_months": [
      1,
      2,
      3,
      4
    ],
    "tags": [
      "historical_site",
      "ceremony",
      "landmark"
    ],
    "coordinates": [
      106.748,
      21.856
    ]
  },
  {
    "name": "Làng nổi Tân Lập",
    "province": "Long An",
    "best_months": [
      11,
      12,
      1,
      2
    ],
    "tags": [
      "village",
      "river",
      "wildlife",
      "kayaking"
    ],
    "coordinates": [
      105.780,
      10.623
    ]
  },
  {
    "name": "Nhà cổ Trăm Cột",
    "province": "Long An",
    "best_months": [
      11,
      12,
      1,
      2
    ],
    "tags": [
      "traditional_house",
      "historical_site",
      "landmark"
    ],
    "coordinates": [
      106.671,
      10.528
    ]
  },
  {
    "name": "Chùa Tôn Thạnh",
    "province": "Long An",
    "best_months": [
      1,
      2,
      3,
      4
    ],
    "tags": [
      "historical_site",
      "ceremony",
      "landmark"
    ],
    "coordinates": [
      106.679,
      10.574
    ]
  },
  {
    "name": "Sông Vàm Cỏ",
    "province": "Long An",
    "best_months": [
      11,
      12,
      1,
      2
    ],
    "tags": [
      "river",
      "wildlife",
      "kayaking"
    ],
    "coordinates": [
      106.137,
      10.616
    ]
  },
  {
    "name": "Chợ đêm Tân An",
    "province": "Long An",
    "best_months": [
      11,
      12,
      1,
      2
    ],
    "tags": [
      "market",
      "cuisine",
      "local_people"
    ],
    "coordinates": [
      106.6833,
      10.9
    ]
  },
  {
    "name": "Nhà thờ Phú Nhai",
    "province": "Nam Định",
    "best_months": [
      3,
      4,
      10,
      11
    ],
    "tags": [
      "landmark",
      "historical_site",
      "ceremony"
    ],
    "coordinates": [
      106.166,
      20.388
    ]
  },
  {
    "name": "Đền Trần",
    "province": "Nam Định",
    "best_months": [
      1,
      2,
      3,
      4
    ],
    "tags": [
      "historical_site",
      "ceremony",
      "landmark"
    ],
    "coordinates": [
      106.171,
      20.417
    ]
  },
  {
    "name": "Vườn quốc gia Xuân Thủy",
    "province": "Nam Định",
    "best_months": [
      11,
      12,
      1,
      2
    ],
    "tags": [
      "national_park",
      "bird",
      "marine_life",
      "wildlife",
      "river"
    ],
    "coordinates": [
      106.5667,
      20.2333
    ]
  },
  {
    "name": "Chợ Viềng",
    "province": "Nam Định",
    "best_months": [
      2
    ],
    "tags": [
      "market",
      "festival",
      "local_people"
    ],
    "coordinates": [
      106.1475,
      20.3572
    ]
  },
  {
    "name": "Hồ Vị Xuyên",
    "province": "Nam Định",
    "best_months": [
      4,
      5,
      10,
      11
    ],
    "tags": [
      "lake",
      "cityscape",
      "sunset"
    ],
    "coordinates": [
      106.1650,
      20.4289
    ]
  },
  {
    "name": "Làng Sen",
    "province": "Nghệ An",
    "best_months": [
      5,
      6
    ],
    "tags": [
      "village",
      "traditional_house",
      "local_people",
      "cuisine"
    ],
    "coordinates": [
      105.3764,
      18.7636
    ]
  },
  {
    "name": "Bãi biển Cửa Lò",
    "province": "Nghệ An",
    "best_months": [
      5,
      6,
      7,
      8
    ],
    "tags": [
      "beach",
      "marine_life",
      "sunset"
    ],
    "coordinates": [
      105.6828,
      18.8047
    ]
  },
  {
    "name": "Khu di tích Truông Bồn",
    "province": "Nghệ An",
    "best_months": [
      4,
      5,
      9,
      10
    ],
    "tags": [
      "historical_site",
      "ceremony",
      "landmark"
    ],
    "coordinates": [
      105.2542,
      19.0308
    ]
  },
  {
    "name": "Đồi chè Thanh Chương",
    "province": "Nghệ An",
    "best_months": [
      2,
      3,
      11,
      12
    ],
    "tags": [
      "grassland",
      "river",
      "village",
      "kayaking"
    ],
    "coordinates": [
      105.1513,
      19.0493
    ]
  },
  {
    "name": "Hang Thẩm Ồm",
    "province": "Nghệ An",
    "best_months": [
      3,
      4,
      11,
      12
    ],
    "tags": [
      "cave",
      "historical_site"
    ],
    "coordinates": [
      104.7747,
      19.3308
    ]
  },
  {
    "name": "Tràng An",
    "province": "Ninh Bình",
    "best_months": [
      1,
      2,
      3,
      11,
      12
    ],
    "tags": [
      "river",
      "mountain",
      "cave",
      "historical_site",
      "trekking"
    ],
    "coordinates": [
      105.8935,
      20.2436
    ]
  },
  {
    "name": "Tam Cốc",
    "province": "Ninh Bình",
    "best_months": [
      3,
      4,
      5
    ],
    "tags": [
      "river",
      "rice_field",
      "mountain",
      "kayaking"
    ],
    "coordinates": [
      105.9220,
      20.2403
    ]
  },
  {
    "name": "Cố đô Hoa Lư",
    "province": "Ninh Bình",
    "best_months": [
      1,
      2,
      3
    ],
    "tags": [
      "historical_site",
      "landmark",
      "traditional_house"
    ],
    "coordinates": [
      105.9156,
      20.2531
    ]
  },
  {
    "name": "Vườn quốc gia Cúc Phương",
    "province": "Ninh Bình",
    "best_months": [
      2,
      3,
      4,
      11,
      12
    ],
    "tags": [
      "national_park",
      "forest",
      "wildlife",
      "bird",
      "trekking"
    ],
    "coordinates": [
      105.6087,
      20.3162
    ]
  },
  {
    "name": "Hồ Đồng Chương",
    "province": "Ninh Bình",
    "best_months": [
      3,
      4,
      10,
      11
    ],
    "tags": [
      "lake",
      "camping",
      "forest"
    ],
    "coordinates": [
      105.9744,
      20.3503
    ]
  },
  {
    "name": "Vịnh Vĩnh Hy",
    "province": "Ninh Thuận",
    "best_months": [
      4,
      5,
      6,
      7,
      8
    ],
    "tags": [
      "beach",
      "island",
      "marine_life",
      "kayaking"
    ],
    "coordinates": [
      109.1807,
      11.7265
    ]
  },
  {
    "name": "Vườn quốc gia Núi Chúa",
    "province": "Ninh Thuận",
    "best_months": [
      3,
      4,
      5
    ],
    "tags": [
      "national_park",
      "mountain",
      "wildlife",
      "forest"
    ],
    "coordinates": [
      109.1803,
      11.7578
    ]
  },
  {
    "name": "Tháp Po Klong Garai",
    "province": "Ninh Thuận",
    "best_months": [
      2,
      3,
      4,
      9,
      10
    ],
    "tags": [
      "historical_site",
      "landmark",
      "ceremony"
    ],
    "coordinates": [
      108.9879,
      11.5826
    ]
  },
  {
    "name": "Vườn nho Ninh Thuận",
    "province": "Ninh Thuận",
    "best_months": [
      4,
      5,
      6,
      7
    ],
    "tags": [
      "cuisine",
      "village",
      "local_people"
    ],
    "coordinates": [
      108.9894,
      11.6003
    ]
  },
  {
    "name": "Hồ Ba Bể",
    "province": "Bắc Kạn",
    "best_months": [
      1,
      2,
      3,
      10,
      11,
      12
    ],
    "tags": [
      "lake",
      "national_park",
      "boat",
      "forest",
      "trekking"
    ],
    "coordinates": [
      105.8543,
      22.4115
    ]
  },
  {
    "name": "Đền Hùng",
    "province": "Phú Thọ",
    "best_months": [
      3,
      4
    ],
    "tags": [
      "historical_site",
      "ceremony",
      "festival",
      "landmark"
    ],
    "coordinates": [
      105.3180,
      21.3769
    ]
  },
  {
    "name": "Làng cổ Hùng Lô",
    "province": "Phú Thọ",
    "best_months": [
      2,
      3,
      10,
      11
    ],
    "tags": [
      "village",
      "traditional_house",
      "local_people"
    ],
    "coordinates": [
      105.2889,
      21.3739
    ]
  },
  {
    "name": "Đảo Ngọc Xanh",
    "province": "Phú Thọ",
    "best_months": [
      4,
      5,
      6
    ],
    "tags": [
      "island",
      "river",
      "camping"
    ],
    "coordinates": [
      105.2533,
      21.1282
    ]
  },
  {
    "name": "Vườn quốc gia Xuân Sơn",
    "province": "Phú Thọ",
    "best_months": [
      2,
      3,
      11,
      12
    ],
    "tags": [
      "national_park",
      "mountain",
      "cave",
      "trekking",
      "forest"
    ],
    "coordinates": [
      104.9511,
      21.0969
    ]
  },
  {
    "name": "Suối nước nóng Thanh Thủy",
    "province": "Phú Thọ",
    "best_months": [
      10,
      11,
      12,
      1,
      2
    ],
    "tags": [
      "hot_air_balloon",
      "river",
      "camping",
      "weather"
    ],
    "coordinates": [
      105.2852,
      21.1347
    ]
  },
  {
    "name": "Sông Chày",
    "province": "Quảng Bình",
    "best_months": [
      3,
      4,
      5,
      6
    ],
    "tags": [
      "river",
      "kayaking",
      "trekking",
      "national_park"
    ],
    "coordinates": [
      106.2300,
      17.5850
    ]
  },
  {
    "name": "Phố cổ Hội An",
    "province": "Quảng Nam",
    "best_months": [
      1,
      2,
      3,
      11,
      12
    ],
    "tags": [
      "old_town",
      "street",
      "market",
      "traditional_costume",
      "lantern"
    ],
    "coordinates": [
      108.3307,
      15.8801
    ]
  },
  {
    "name": "Bãi biển An Bàng",
    "province": "Quảng Nam",
    "best_months": [
      4,
      5,
      6,
      7,
      8
    ],
    "tags": [
      "beach",
      "sunset",
      "marine_life"
    ],
    "coordinates": [
      108.3407,
      15.8950
    ]
  },
  {
    "name": "Tháp Chiên Đàn",
    "province": "Quảng Nam",
    "best_months": [
      1,
      2,
      3,
      4
    ],
    "tags": [
      "historical_site",
      "ceremony",
      "landmark"
    ],
    "coordinates": [
      108.0585,
      15.5786
    ]
  },
  {
    "name": "Đỉnh Quế",
    "province": "Quảng Nam",
    "best_months": [
      3,
      4,
      5,
      10,
      11
    ],
    "tags": [
      "mountain",
      "trekking",
      "sky",
      "camping"
    ],
    "coordinates": [
      107.8284,
      15.6997
    ]
  },
  {
    "name": "Thánh Địa Mỹ Sơn",
    "province": "Quảng Nam",
    "best_months": [
      2,
      3,
      4,
      11,
      12
    ],
    "tags": [
      "historical_site",
      "landmark",
      "ceremony",
      "forest"
    ],
    "coordinates": [
      108.1121,
      15.7743
    ]
  },
  {
    "name": "Núi Thiên Ấn",
    "province": "Quảng Ngãi",
    "best_months": [
      1,
      2,
      3,
      10,
      11
    ],
    "tags": [
      "mountain",
      "historical_site",
      "landmark",
      "sunset"
    ],
    "coordinates": [
      108.7825,
      15.1120
    ]
  },
  {
    "name": "Bãi biển Mỹ Khê",
    "province": "Quảng Ngãi",
    "best_months": [
      4,
      5,
      6,
      7
    ],
    "tags": [
      "beach",
      "sunrise",
      "marine_life"
    ],
    "coordinates": [
      108.8742,
      15.1217
    ]
  },
  {
    "name": "Đồng muối Sa Huỳnh",
    "province": "Quảng Ngãi",
    "best_months": [
      4,
      5,
      6,
      7
    ],
    "tags": [
      "village",
      "local_people",
      "cuisine",
      "season"
    ],
    "coordinates": [
      108.5618,
      14.8356
    ]
  },
  {
    "name": "Thác Trắng",
    "province": "Quảng Ngãi",
    "best_months": [
      6,
      7,
      8
    ],
    "tags": [
      "waterfall",
      "forest",
      "trekking"
    ],
    "coordinates": [
      108.4592,
      14.8875
    ]
  },
  {
    "name": "Đèo Vi O Lắc",
    "province": "Quảng Ngãi",
    "best_months": [
      2,
      3,
      10,
      11
    ],
    "tags": [
      "mountain",
      "canyon",
      "cycling",
      "forest",
      "weather"
    ],
    "coordinates": [
      108.2426,
      14.6490
    ]
  },
  {
    "name": "Vịnh Hạ Long",
    "province": "Quảng Ninh",
    "best_months": [
      1,
      2,
      3,
      4,
      5,
      6,
      7,
      8,
      9,
      10,
      11,
      12
    ],
    "tags": [
      "sea",
      "island",
      "waterfall",
      "national_park",
      "sunset",
      "cuisine",
      "historical_site"
    ],
    "coordinates": [
      107.083,
      20.944
    ]
  },
  {
    "name": "Biển Bãi Cháy",
    "province": "Quảng Ninh",
    "best_months": [
      4,
      5,
      6,
      7,
      8,
      9
    ],
    "tags": [
      "beach",
      "sunset",
      "sea",
      "waterfall",
      "cuisine",
      "festival"
    ],
    "coordinates": [
      107.041,
      20.948
    ]
  },
  {
    "name": "Công viên Hạ Long",
    "province": "Quảng Ninh",
    "best_months": [
      1,
      2,
      3,
      4,
      5,
      6,
      7,
      8,
      9,
      10,
      11,
      12
    ],
    "tags": [
      "national_park",
      "nature",
      "trekking",
      "family"
    ],
    "coordinates": [
      107.091,
      20.955
    ]
  },
  {
    "name": "Làng chài Cửa Vạn",
    "province": "Quảng Ninh",
    "best_months": [
      4,
      5,
      6,
      7,
      8,
      9
    ],
    "tags": [
      "village",
      "sea",
      "local_people",
      "traditional_costume",
      "cuisine",
      "festival"
    ],
    "coordinates": [
      107.037,
      20.929
    ]
  },
  {
    "name": "Động Thiên Cung",
    "province": "Quảng Ninh",
    "best_months": [
      1,
      2,
      3,
      4,
      5,
      6,
      7,
      8,
      9,
      10,
      11,
      12
    ],
    "tags": [
      "cave",
      "historical_site",
      "nature",
      "trekking"
    ],
    "coordinates": [
      107.100,
      20.950
    ]
  },
  {
    "name": "Nghĩa trang Liệt sĩ Quốc gia Trường Sơn",
    "province": "Quảng Trị",
    "best_months": [
      1,
      2,
      3,
      4,
      5,
      6,
      7,
      8,
      9,
      10,
      11,
      12
    ],
    "tags": [
      "historical_site",
      "ceremony",
      "memorial",
      "season"
    ],
    "coordinates": [
      107.583,
      16.637
    ]
  },
  {
    "name": "Địa đạo Vịnh Mốc",
    "province": "Quảng Trị",
    "best_months": [
      1,
      2,
      3,
      4,
      5,
      6,
      7,
      8,
      9,
      10,
      11,
      12
    ],
    "tags": [
      "historical_site",
      "cave",
      "trekking",
      "memorial",
      "ceremony"
    ],
    "coordinates": [
      107.438,
      17.410
    ]
  },
  {
    "name": "Bãi biển Cửa Tùng",
    "province": "Quảng Trị",
    "best_months": [
      4,
      5,
      6,
      7,
      8,
      9
    ],
    "tags": [
      "beach",
      "sea",
      "sunset",
      "festival",
      "cuisine"
    ],
    "coordinates": [
      107.309,
      16.759
    ]
  },
  {
    "name": "Đồi hoa Miền Viên Thảo",
    "province": "Lạng Sơn",
    "best_months": [
      3,
      4,
      5,
      6
    ],
    "tags": [
      "flower_field",
      "nature",
      "season",
      "sunrise"
    ],
    "coordinates": [
      106.595,
      21.472
    ]
  },
  {
    "name": "Đỉnh Cu Vơ",
    "province": "Sơn La",
    "best_months": [
      4,
      5,
      6,
      7,
      8,
      9
    ],
    "tags": [
      "mountain",
      "trekking",
      "nature",
      "sky",
      "sunrise"
    ],
    "coordinates": [
      104.842,
      21.220
    ]
  },
  {
    "name": "Chợ nổi Ngã Năm",
    "province": "Sóc Trăng",
    "best_months": [
      1,
      2,
      3,
      4,
      5,
      6,
      7,
      8,
      9,
      10,
      11,
      12
    ],
    "tags": [
      "market",
      "cuisine",
      "local_people",
      "river"
    ],
    "coordinates": [
      105.775,
      9.622
    ]
  },
  {
    "name": "Chùa Dơi",
    "province": "Sóc Trăng",
    "best_months": [
      1,
      2,
      3,
      4,
      5,
      6,
      7,
      8,
      9,
      10,
      11,
      12
    ],
    "tags": [
      "historical_site",
      "ceremony",
      "culture",
      "local_people"
    ],
    "coordinates": [
      105.983,
      9.594
    ]
  },
  {
    "name": "Vườn cò Tân Long",
    "province": "Đồng Tháp",
    "best_months": [
      1,
      2,
      3,
      4,
      5,
      6,
      7,
      8,
      9,
      10,
      11,
      12
    ],
    "tags": [
      "wildlife",
      "bird",
      "nature",
      "season"
    ],
    "coordinates": [
      105.717,
      10.241
    ]
  },
  {
    "name": "Biển Hồ Bể",
    "province": "Gia Lai",
    "best_months": [
      1,
      2,
      3,
      4,
      5,
      6,
      7,
      8,
      9,
      10,
      11,
      12
    ],
    "tags": [
      "lake",
      "nature",
      "trekking",
      "sunrise",
      "waterfall"
    ],
    "coordinates": [
      108.309,
      13.873
    ]
  },
  {
    "name": "Chùa Som Rong",
    "province": "Sóc Trăng",
    "best_months": [
      1,
      2,
      3,
      4,
      5,
      6,
      7,
      8,
      9,
      10,
      11,
      12
    ],
    "tags": [
      "historical_site",
      "ceremony",
      "culture",
      "local_people",
      "traditional_costume"
    ],
    "coordinates": [
      105.970,
      9.605
    ]
  },
  {
    "name": "Mộc Châu",
    "province": "Sơn La",
    "best_months": [
      1,
      2,
      3,
      11,
      12
    ],
    "tags": [
      "mountain",
      "flower_field",
      "rice_field",
      "trekking",
      "sky",
      "nature"
    ],
    "coordinates": [
      104.066,
      20.758
    ]
  },
  {
    "name": "Ngũ động bản Ông",
    "province": "Sơn La",
    "best_months": [
      4,
      5,
      6,
      7,
      8,
      9
    ],
    "tags": [
      "cave",
      "trekking",
      "nature",
      "historical_site",
      "wildlife"
    ],
    "coordinates": [
      104.798,
      20.799
    ]
  },
  {
    "name": "Rừng thông bản Áng",
    "province": "Sơn La",
    "best_months": [
      1,
      2,
      3,
      4,
      5,
      6,
      7,
      8,
      9,
      10,
      11,
      12
    ],
    "tags": [
      "forest",
      "nature",
      "trekking",
      "camping",
      "sunrise"
    ],
    "coordinates": [
      104.758,
      20.755
    ]
  },
  {
    "name": "Thác Dải Yếm",
    "province": "Sơn La",
    "best_months": [
      4,
      5,
      6,
      7,
      8,
      9
    ],
    "tags": [
      "waterfall",
      "nature",
      "trekking",
      "sunset",
      "photography"
    ],
    "coordinates": [
      104.766,
      20.807
    ]
  },
  {
    "name": "Đỉnh Tà Xua",
    "province": "Sơn La",
    "best_months": [
      4,
      5,
      6,
      7,
      8,
      9
    ],
    "tags": [
      "mountain",
      "trekking",
      "nature",
      "clouds",
      "sky",
      "sunrise"
    ],
    "coordinates": [
      104.791,
      21.218
    ]
  },
  {
    "name": "Núi Bà Đen",
    "province": "Tây Ninh",
    "best_months": [
      1,
      2,
      3,
      4,
      5,
      9,
      10,
      11,
      12
    ],
    "tags": [
      "mountain",
      "trekking",
      "nature",
      "sunrise",
      "historical_site"
    ],
    "coordinates": [
      106.469,
      11.426
    ]
  },
  {
    "name": "Tòa thánh Tây Ninh",
    "province": "Tây Ninh",
    "best_months": [
      1,
      2,
      3,
      9,
      10,
      11
    ],
    "tags": [
      "historical_site",
      "ceremony",
      "culture",
      "architecture",
      "religion"
    ],
    "coordinates": [
      106.134,
      11.287
    ]
  },
  {
    "name": "Hồ Dầu Tiếng",
    "province": "Tây Ninh",
    "best_months": [
      1,
      2,
      3,
      4,
      5,
      9,
      10,
      11
    ],
    "tags": [
      "lake",
      "nature",
      "waterfall",
      "trekking",
      "photography"
    ],
    "coordinates": [
      106.380,
      11.350
    ]
  },
  {
    "name": "Tháp Chóp Mạt",
    "province": "Tây Ninh",
    "best_months": [
      1,
      2,
      3,
      4,
      5,
      9,
      10,
      11
    ],
    "tags": [
      "historical_site",
      "cultural_heritage",
      "trekking",
      "archaeology"
    ],
    "coordinates": [
      106.289,
      11.351
    ]
  },
  {
    "name": "Vườn quốc gia Lò Gò - Xa Mát",
    "province": "Tây Ninh",
    "best_months": [
      1,
      2,
      3,
      4,
      5,
      9,
      10,
      11
    ],
    "tags": [
      "national_park",
      "wildlife",
      "trekking",
      "nature",
      "bird"
    ],
    "coordinates": [
      106.425,
      11.426
    ]
  },
  {
    "name": "Chùa Keo",
    "province": "Thái Bình",
    "best_months": [
      1,
      2,
      3,
      9,
      10,
      11
    ],
    "tags": [
      "historical_site",
      "ceremony",
      "culture",
      "architecture",
      "religion"
    ],
    "coordinates": [
      106.392,
      20.326
    ]
  },
  {
    "name": "Bãi biển Đồng Châu",
    "province": "Thái Bình",
    "best_months": [
      4,
      5,
      6,
      7,
      8,
      9
    ],
    "tags": [
      "beach",
      "sea",
      "sunset",
      "nature",
      "photography"
    ],
    "coordinates": [
      106.322,
      20.308
    ]
  },
  {
    "name": "Bãi biển Cồn Đen",
    "province": "Thái Bình",
    "best_months": [
      4,
      5,
      6,
      7,
      8,
      9
    ],
    "tags": [
      "beach",
      "sea",
      "sunset",
      "wildlife",
      "nature"
    ],
    "coordinates": [
      106.298,
      20.370
    ]
  },
  {
    "name": "Nhà thờ Bác Trạch",
    "province": "Hưng Yên",
    "best_months": [
      1,
      2,
      3,
      9,
      10,
      11
    ],
    "tags": [
      "historical_site",
      "culture",
      "architecture",
      "religion"
    ],
    "coordinates": [
      106.048,
      20.897
    ]
  },
  {
    "name": "Làng dệt chiếu Hới",
    "province": "Thái Bình",
    "best_months": [
      3,
      4,
      5,
      9,
      10,
      11
    ],
    "tags": [
      "village",
      "culture",
      "local_people",
      "tradition",
      "craftsmanship"
    ],
    "coordinates": [
      106.332,
      20.210
    ]
  },
  {
    "name": "Hồ Núi Cốc",
    "province": "Thái Nguyên",
    "best_months": [
      1,
      2,
      3,
      4,
      5,
      9,
      10,
      11
    ],
    "tags": [
      "lake",
      "nature",
      "waterfall",
      "photography",
      "trekking"
    ],
    "coordinates": [
      105.303,
      21.398
    ]
  },
  {
    "name": "Đồi chè Tân Cương",
    "province": "Thái Nguyên",
    "best_months": [
      3,
      4,
      5,
      9,
      10,
      11
    ],
    "tags": [
      "tea_field",
      "nature",
      "agriculture",
      "photography",
      "culture"
    ],
    "coordinates": [
      105.258,
      21.469
    ]
  },
  {
    "name": "Hồ Mai Miếu",
    "province": "Thanh Hóa",
    "best_months": [
      1,
      2,
      3,
      4,
      5,
      9,
      10,
      11
    ],
    "tags": [
      "lake",
      "nature",
      "waterfall",
      "trekking",
      "wildlife"
    ],
    "coordinates": [
      105.774,
      20.448
    ]
  },
  {
    "name": "Động Linh Sơn",
    "province": "Hòa Bình",
    "best_months": [
      1,
      2,
      3,
      4,
      5,
      9,
      10,
      11
    ],
    "tags": [
      "cave",
      "nature",
      "historical_site",
      "trekking",
      "wildlife"
    ],
    "coordinates": [
      105.325,
      20.573
    ]
  },
  {
    "name": "Thác Đát Đắng",
    "province": "Hòa Bình",
    "best_months": [
      4,
      5,
      6,
      7,
      8,
      9
    ],
    "tags": [
      "waterfall",
      "nature",
      "trekking",
      "photography"
    ],
    "coordinates": [
      105.483,
      20.356
    ]
  },
  {
    "name": "Suối Hiêu",
    "province": "Hòa Bình",
    "best_months": [
      1,
      2,
      3,
      4,
      5,
      6,
      7,
      8,
      9,
      10,
      11,
      12
    ],
    "tags": [
      "river",
      "waterfall",
      "nature",
      "trekking",
      "photography"
    ],
    "coordinates": [
      105.417,
      20.514
    ]
  },
  {
    "name": "Ruộng bậc thang Pù Luông",
    "province": "Thanh Hóa",
    "best_months": [
      5,
      6,
      7,
      8,
      9
    ],
    "tags": [
      "rice_field",
      "nature",
      "trekking",
      "season",
      "photography"
    ],
    "coordinates": [
      105.297,
      20.258
    ]
  },
  {
    "name": "Suối cá Thần Cẩm Thủy",
    "province": "Thanh Hóa",
    "best_months": [
      1,
      2,
      3,
      4,
      5,
      9,
      10,
      11
    ],
    "tags": [
      "river",
      "wildlife",
      "nature",
      "historical_site",
      "culture"
    ],
    "coordinates": [
      105.302,
      20.055
    ]
  },
  {
    "name": "Vườn quốc gia Bến En",
    "province": "Thanh Hóa",
    "best_months": [
      1,
      2,
      3,
      4,
      5,
      9,
      10,
      11
    ],
    "tags": [
      "national_park",
      "wildlife",
      "trekking",
      "nature",
      "bird"
    ],
    "coordinates": [
      105.748,
      19.987
    ]
  },
  {
    "name": "Động Từ Thức",
    "province": "Quảng Bình",
    "best_months": [
      1,
      2,
      3,
      4,
      5,
      9,
      10,
      11
    ],
    "tags": [
      "cave",
      "nature",
      "trekking",
      "wildlife",
      "photography"
    ],
    "coordinates": [
      106.380,
      17.800
    ]
  },
  {
    "name": "Đại Nội Huế",
    "province": "Thừa Thiên Huế",
    "best_months": [
      1,
      2,
      3,
      4,
      5,
      9,
      10,
      11
    ],
    "tags": [
      "historical_site",
      "cultural_heritage",
      "architecture",
      "religion"
    ],
    "coordinates": [
      107.584,
      16.463
    ]
  },
  {
    "name": "Chùa Thiên Mụ",
    "province": "Thừa Thiên Huế",
    "best_months": [
      1,
      2,
      3,
      4,
      5,
      9,
      10,
      11
    ],
    "tags": [
      "historical_site",
      "religion",
      "architecture",
      "ceremony"
    ],
    "coordinates": [
      107.587,
      16.453
    ]
  },
  {
    "name": "Lăng Khải Định",
    "province": "Thừa Thiên Huế",
    "best_months": [
      1,
      2,
      3,
      4,
      5,
      9,
      10,
      11
    ],
    "tags": [
      "historical_site",
      "architecture",
      "culture",
      "ceremony"
    ],
    "coordinates": [
      107.554,
      16.465
    ]
  },
  {
    "name": "Lăng Minh Mạng",
    "province": "Thừa Thiên Huế",
    "best_months": [
      1,
      2,
      3,
      4,
      5,
      9,
      10,
      11
    ],
    "tags": [
      "historical_site",
      "architecture",
      "culture",
      "ceremony"
    ],
    "coordinates": [
      107.525,
      16.463
    ]
  },
  {
    "name": "Cầu Tràng Tiền",
    "province": "Thừa Thiên Huế",
    "best_months": [
      1,
      2,
      3,
      4,
      5,
      9,
      10,
      11
    ],
    "tags": [
      "landmark",
      "architecture",
      "river",
      "historical_site"
    ],
    "coordinates": [
      107.585,
      16.464
    ]
  },
  {
    "name": "Biển Tân Thành",
    "province": "Bến Tre",
    "best_months": [
      4,
      5,
      6,
      7,
      8,
      9
    ],
    "tags": [
      "beach",
      "sea",
      "sunset",
      "nature",
      "photography"
    ],
    "coordinates": [
      106.788,
      10.325
    ]
  },
  {
    "name": "Cầu Mỹ Thuận",
    "province": "Vĩnh Long",
    "best_months": [
      1,
      2,
      3,
      4,
      5,
      9,
      10,
      11
    ],
    "tags": [
      "bridge",
      "landmark",
      "river",
      "architecture"
    ],
    "coordinates": [
      105.954,
      10.250
    ]
  },
  {
    "name": "Nhà Thờ Cái Bè",
    "province": "Tiền Giang",
    "best_months": [
      1,
      2,
      3,
      4,
      5,
      9,
      10,
      11
    ],
    "tags": [
      "historical_site",
      "architecture",
      "culture",
      "religion"
    ],
    "coordinates": [
      106.264,
      10.220
    ]
  },
  {
    "name": "Chùa Linh Thứu",
    "province": "Cần Thơ",
    "best_months": [
      1,
      2,
      3,
      4,
      5,
      9,
      10,
      11
    ],
    "tags": [
      "historical_site",
      "religion",
      "architecture",
      "culture"
    ],
    "coordinates": [
      105.446,
      10.059
    ]
  },
  {
    "name": "Nhà thờ Thánh Tòa",
    "province": "Bắc Giang",
    "best_months": [
      1,
      2,
      3,
      4,
      5,
      9,
      10,
      11
    ],
    "tags": [
      "historical_site",
      "architecture",
      "religion",
      "culture"
    ],
    "coordinates": [
      106.228,
      21.286
    ]
  },
  {
    "name": "Chợ Bến Thành",
    "province": "TP. Hồ Chí Minh",
    "best_months": [
      1,
      2,
      3,
      4,
      5,
      6,
      7,
      8,
      9,
      10,
      11,
      12
    ],
    "tags": [
      "market",
      "culture",
      "shopping",
      "local_people"
    ],
    "coordinates": [
      106.695,
      10.762
    ]
  },
  {
    "name": "Dinh Độc Lập",
    "province": "TP. Hồ Chí Minh",
    "best_months": [
      1,
      2,
      3,
      4,
      5,
      6,
      7,
      8,
      9,
      10,
      11,
      12
    ],
    "tags": [
      "historical_site",
      "architecture",
      "culture",
      "landmark"
    ],
    "coordinates": [
      106.695,
      10.778
    ]
  },
  {
    "name": "Nhà thờ Đức Bà",
    "province": "TP. Hồ Chí Minh",
    "best_months": [
      1,
      2,
      3,
      4,
      5,
      6,
      7,
      8,
      9,
      10,
      11,
      12
    ],
    "tags": [
      "historical_site",
      "architecture",
      "religion",
      "culture"
    ],
    "coordinates": [
      106.694,
      10.776
    ]
  },
  {
    "name": "Bảo tàng lịch sử Việt Nam",
    "province": "TP. Hồ Chí Minh",
    "best_months": [
      1,
      2,
      3,
      4,
      5,
      6,
      7,
      8,
      9,
      10,
      11,
      12
    ],
    "tags": [
      "museum",
      "historical_site",
      "culture",
      "education"
    ],
    "coordinates": [
      106.695,
      10.762
    ]
  },
  {
    "name": "Địa đạo Củ Chi",
    "province": "TP. Hồ Chí Minh",
    "best_months": [
      1,
      2,
      3,
      4,
      5,
      6,
      7,
      8,
      9,
      10,
      11,
      12
    ],
    "tags": [
      "historical_site",
      "war_heritage",
      "culture",
      "trekking"
    ],
    "coordinates": [
      106.517,
      10.873
    ]
  },
  {
    "name": "Rừng Tràm Trà Sư",
    "province": "An Giang",
    "best_months": [
      1,
      2,
      3,
      4,
      5,
      6,
      7,
      8,
      9,
      10,
      11,
      12
    ],
    "tags": [
      "forest",
      "wildlife",
      "nature",
      "bird",
      "photography"
    ],
    "coordinates": [
      105.338,
      10.416
    ]
  },
  {
    "name": "Hồ Soài So",
    "province": "Bình Thuận",
    "best_months": [
      1,
      2,
      3,
      4,
      5,
      6,
      7,
      8,
      9,
      10,
      11,
      12
    ],
    "tags": [
      "lake",
      "nature",
      "waterfall",
      "trekking"
    ],
    "coordinates": [
      108.168,
      11.529
    ]
  },
  {
    "name": "Chùa Lầu",
    "province": "Bến Tre",
    "best_months": [
      1,
      2,
      3,
      4,
      5,
      9,
      10,
      11
    ],
    "tags": [
      "historical_site",
      "religion",
      "architecture",
      "culture"
    ],
    "coordinates": [
      106.380,
      10.255
    ]
  },
  {
    "name": "Miếu Bà Chúa Xứ",
    "province": "An Giang",
    "best_months": [
      1,
      2,
      3,
      4,
      5,
      9,
      10,
      11
    ],
    "tags": [
      "religion",
      "culture",
      "historical_site",
      "ceremony"
    ],
    "coordinates": [
      105.278,
      10.206
    ]
  },
  {
    "name": "Thiền Viện Trúc Lâm",
    "province": "Lâm Đồng",
    "best_months": [
      1,
      2,
      3,
      4,
      5,
      9,
      10,
      11
    ],
    "tags": [
      "religion",
      "historical_site",
      "architecture",
      "culture",
      "ceremony"
    ],
    "coordinates": [
      108.408,
      11.954
    ]
  },
  {
    "name": "Núi Dinh Vũng Tàu",
    "province": "Bà Rịa - Vũng Tàu",
    "best_months": [
      1,
      2,
      3,
      4,
      5,
      9,
      10,
      11
    ],
    "tags": [
      "mountain",
      "nature",
      "trekking",
      "photography",
      "wildlife"
    ],
    "coordinates": [
      107.064,
      10.350
    ]
  },
  {
    "name": "Bãi Sau",
    "province": "Bà Rịa - Vũng Tàu",
    "best_months": [
      1,
      2,
      3,
      4,
      5,
      9,
      10,
      11
    ],
    "tags": [
      "beach",
      "sea",
      "sunset",
      "nature",
      "photography"
    ],
    "coordinates": [
      107.075,
      10.353
    ]
  },
  {
    "name": "Hồ Tràm",
    "province": "Bà Rịa - Vũng Tàu",
    "best_months": [
      1,
      2,
      3,
      4,
      5,
      9,
      10,
      11
    ],
    "tags": [
      "beach",
      "sea",
      "sunset",
      "nature",
      "photography"
    ],
    "coordinates": [
      107.448,
      10.592
    ]
  },
  {
    "name": "Suối Ồ",
    "province": "Bà Rịa - Vũng Tàu",
    "best_months": [
      1,
      2,
      3,
      4,
      5,
      9,
      10,
      11
    ],
    "tags": [
      "waterfall",
      "nature",
      "trekking",
      "wildlife",
      "photography"
    ],
    "coordinates": [
      107.235,
      10.573
    ]
  },
  {
    "name": "Côn Đảo Vũng Tàu",
    "province": "Bà Rịa - Vũng Tàu",
    "best_months": [
      1,
      2,
      3,
      4,
      5,
      9,
      10,
      11
    ],
    "tags": [
      "island",
      "beach",
      "sea",
      "nature",
      "historical_site"
    ],
    "coordinates": [
      106.610,
      8.698
    ]
  },
  {
    "name": "Chùa cổ Bồ Đà",
    "province": "Bắc Giang",
    "best_months": [
      1,
      2,
      3,
      4,
      5,
      9,
      10,
      11
    ],
    "tags": [
      "historical_site",
      "religion",
      "architecture",
      "culture"
    ],
    "coordinates": [
      106.220,
      21.337
    ]
  },
  {
    "name": "Thác Thùm Thùm",
    "province": "Bình Thuận",
    "best_months": [
      4,
      5,
      6,
      7,
      8,
      9
    ],
    "tags": [
      "waterfall",
      "nature",
      "trekking",
      "wildlife",
      "photography"
    ],
    "coordinates": [
      108.106,
      10.788
    ]
  },
  {
    "name": "Hồ Cấm Sơn",
    "province": "Hải Dương",
    "best_months": [
      1,
      2,
      3,
      4,
      5,
      6,
      7,
      8,
      9,
      10,
      11,
      12
    ],
    "tags": [
      "lake",
      "nature",
      "trekking",
      "wildlife"
    ],
    "coordinates": [
      106.372,
      20.906
    ]
  },
  {
    "name": "Đền Trung",
    "province": "Thanh Hóa",
    "best_months": [
      1,
      2,
      3,
      4,
      5,
      6,
      7,
      8,
      9,
      10,
      11,
      12
    ],
    "tags": [
      "historical_site",
      "religion",
      "culture",
      "ceremony"
    ],
    "coordinates": [
      105.619,
      19.892
    ]
  },
  {
    "name": "Hồ Khuôn Thần",
    "province": "Vĩnh Phúc",
    "best_months": [
      1,
      2,
      3,
      4,
      5,
      6,
      7,
      8,
      9,
      10,
      11,
      12
    ],
    "tags": [
      "lake",
      "nature",
      "waterfall",
      "trekking"
    ],
    "coordinates": [
      105.496,
      21.285
    ]
  },
  {
    "name": "Hồ Ba Bể",
    "province": "Bắc Kạn",
    "best_months": [
      4,
      5,
      6,
      7,
      8,
      9
    ],
    "tags": [
      "lake",
      "nature",
      "photography",
      "trekking",
      "wildlife"
    ],
    "coordinates": [
      105.576,
      22.100
    ]
  },
  {
    "name": "Động Puông",
    "province": "Quảng Ninh",
    "best_months": [
      1,
      2,
      3,
      4,
      5,
      6,
      7,
      8,
      9,
      10,
      11,
      12
    ],
    "tags": [
      "cave",
      "nature",
      "historical_site",
      "trekking"
    ],
    "coordinates": [
      107.231,
      21.066
    ]
  },
  {
    "name": "Thác Đầu Đẳng",
    "province": "Lạng Sơn",
    "best_months": [
      1,
      2,
      3,
      4,
      5,
      6,
      7,
      8,
      9,
      10,
      11,
      12
    ],
    "tags": [
      "waterfall",
      "nature",
      "trekking",
      "wildlife",
      "photography"
    ],
    "coordinates": [
      106.719,
      22.367
    ]
  },
  {
    "name": "Bản Pác Ngòi",
    "province": "Hòa Bình",
    "best_months": [
      4,
      5,
      6,
      7,
      8,
      9
    ],
    "tags": [
      "village",
      "culture",
      "nature",
      "local_people",
      "photography"
    ],
    "coordinates": [
      105.317,
      20.759
    ]
  },
  {
    "name": "Động Nàng Tiên",
    "province": "Quảng Ninh",
    "best_months": [
      1,
      2,
      3,
      4,
      5,
      9,
      10,
      11,
      12
    ],
    "tags": [
      "cave",
      "nature",
      "trekking",
      "wildlife",
      "historical_site"
    ],
    "coordinates": [
      107.302,
      21.184
    ]
  },
  {
    "name": "Chùa Quan Đế",
    "province": "TP. Hồ Chí Minh",
    "best_months": [
      1,
      2,
      3
    ],
    "tags": [
      "historical_site",
      "religion",
      "culture",
      "architecture"
    ],
    "coordinates": [
      106.695,
      10.773
    ]
  },
  {
    "name": "Biển Bạc Liêu",
    "province": "Bạc Liêu",
    "best_months": [
      6,
      7,
      8
    ],
    "tags": [
      "beach",
      "sea",
      "sunset",
      "nature",
      "photography"
    ],
    "coordinates": [
      105.709,
      9.290
    ]
  },
  {
    "name": "Cây Xoài Cổ Thụ",
    "province": "Bạc Liêu",
    "best_months": [
      1,
      2,
      3,
      4,
      5,
      9,
      10,
      11,
      12
    ],
    "tags": [
      "nature",
      "tree",
      "local_people",
      "photography"
    ],
    "coordinates": [
      105.719,
      9.285
    ]
  },
  {
    "name": "Nhà Công tử Bạc Liêu",
    "province": "Bạc Liêu",
    "best_months": [
      9,
      10,
      11
    ],
    "tags": [
      "historical_site",
      "culture",
      "architecture"
    ],
    "coordinates": [
      105.721,
      9.290
    ]
  },
  {
    "name": "Đồng Hồ Thái Dương",
    "province": "Bạc Liêu",
    "best_months": [
      3,
      4,
      5,
      9,
      10,
      11
    ],
    "tags": [
      "landmark",
      "historical_site",
      "culture"
    ],
    "coordinates": [
      105.721,
      9.290
    ]
  },
  {
    "name": "Chùa Phật Tích",
    "province": "Bắc Ninh",
    "best_months": [
      1,
      2,
      3,
      4,
      9,
      10,
      11
    ],
    "tags": [
      "historical_site",
      "religion",
      "architecture",
      "culture"
    ],
    "coordinates": [
      106.085,
      21.227
    ]
  },
  {
    "name": "Chùa Bút Tháp",
    "province": "Bắc Ninh",
    "best_months": [
      1,
      2,
      3,
      4,
      9,
      10,
      11
    ],
    "tags": [
      "historical_site",
      "religion",
      "architecture",
      "culture"
    ],
    "coordinates": [
      106.191,
      21.174
    ]
  },
  {
    "name": "Làng tranh Đông Hồ",
    "province": "Bắc Ninh",
    "best_months": [
      1,
      2,
      3,
      4,
      9,
      10,
      11
    ],
    "tags": [
      "village",
      "culture",
      "art",
      "traditional_costume",
      "local_people"
    ],
    "coordinates": [
      106.076,
      21.128
    ]
  },
  {
    "name": "Đền bà Chúa Kho",
    "province": "Bắc Ninh",
    "best_months": [
      1,
      2,
      3,
      9,
      10,
      11
    ],
    "tags": [
      "historical_site",
      "religion",
      "culture",
      "ceremony"
    ],
    "coordinates": [
      106.089,
      21.172
    ]
  },
  {
    "name": "Chợ Ninh Hiệp",
    "province": "Bắc Giang",
    "best_months": [
      3,
      4,
      5,
      9,
      10,
      11
    ],
    "tags": [
      "market",
      "culture",
      "local_people",
      "shopping"
    ],
    "coordinates": [
      105.929,
      21.221
    ]
  },
  {
    "name": "Khu du lịch Cồn Phụng",
    "province": "Bến Tre",
    "best_months": [
      1,
      2,
      3,
      4,
      5,
      9,
      10,
      11,
      12
    ],
    "tags": [
      "island",
      "nature",
      "tourism",
      "local_people",
      "culture"
    ],
    "coordinates": [
      106.379,
      10.256
    ]
  },
  {
    "name": "Khu lăng mộ cụ Nguyễn Đình Chiểu",
    "province": "Bến Tre",
    "best_months": [
      1,
      2,
      3,
      9,
      10,
      11
    ],
    "tags": [
      "historical_site",
      "culture",
      "literature",
      "tourism"
    ],
    "coordinates": [
      106.278,
      10.190
    ]
  },
  {
    "name": "Chùa Tuyên Linh",
    "province": "Bắc Giang",
    "best_months": [
      1,
      2,
      3,
      9,
      10,
      11
    ],
    "tags": [
      "historical_site",
      "religion",
      "culture",
      "architecture"
    ],
    "coordinates": [
      106.344,
      21.196
    ]
  },
  {
    "name": "Nhà thờ La Mã",
    "province": "Bắc Giang",
    "best_months": [
      10,
      11,
      12,
      1,
      2,
      3
    ],
    "tags": [
      "historical_site",
      "architecture",
      "culture",
      "religion"
    ],
    "coordinates": [
      106.325,
      21.232
    ]
  },
  {
    "name": "Khu du lịch sinh thái vườn Ba Ngói",
    "province": "Bến Tre",
    "best_months": [
      1,
      2,
      3,
      4,
      12
    ],
    "tags": [
      "nature",
      "eco_tourism",
      "local_people",
      "photography"
    ],
    "coordinates": [
      106.487,
      10.315
    ]
  },
  {
    "name": "Bãi tắm Quy Nhơn",
    "province": "Bình Định",
    "best_months": [
      3,
      4,
      5,
      6,
      7,
      8,
      9
    ],
    "tags": [
      "beach",
      "sea",
      "sunset",
      "nature",
      "photography"
    ],
    "coordinates": [
      109.212,
      13.782
    ]
  },
  {
    "name": "Biển Kỳ Co",
    "province": "Bình Định",
    "best_months": [
      3,
      4,
      5,
      6,
      7,
      8,
      9
    ],
    "tags": [
      "beach",
      "sea",
      "nature",
      "photography",
      "island"
    ],
    "coordinates": [
      109.210,
      13.750
    ]
  },
  {
    "name": "Cù Lao Xanh",
    "province": "Bình Định",
    "best_months": [
      3,
      4,
      5,
      6,
      7,
      8,
      9
    ],
    "tags": [
      "island",
      "nature",
      "beach",
      "sea",
      "sunset",
      "photography"
    ],
    "coordinates": [
      109.201,
      13.734
    ]
  },
  {
    "name": "Đầm Thị Nại",
    "province": "Bình Định",
    "best_months": [
      2,
      3,
      4,
      5,
      6,
      7,
      8
    ],
    "tags": [
      "lake",
      "nature",
      "wildlife",
      "photography"
    ],
    "coordinates": [
      109.216,
      13.810
    ]
  },
  {
    "name": "Hòn Khô",
    "province": "Bình Định",
    "best_months": [
      3,
      4,
      5,
      6,
      7,
      8,
      9
    ],
    "tags": [
      "island",
      "beach",
      "sea",
      "nature",
      "photography"
    ],
    "coordinates": [
      109.219,
      13.554
    ]
  },
  {
    "name": "Chùa Tây Tạng",
    "province": "Bình Dương",
    "best_months": [
      1,
      2,
      3,
      4,
      5,
      6,
      7,
      8,
      9,
      10,
      11,
      12
    ],
    "tags": [
      "historical_site",
      "religion",
      "architecture",
      "culture"
    ],
    "coordinates": [
      106.611,
      10.863
    ]
  },
  {
    "name": "Khu du lịch Đại Nam",
    "province": "Bình Dương",
    "best_months": [
      1,
      2,
      4,
      11,
      12
    ],
    "tags": [
      "theme_park",
      "tourism",
      "family_fun",
      "adventure",
      "culture"
    ],
    "coordinates": [
      106.672,
      10.872
    ]
  },
  {
    "name": "Hồ Dầu Tiếng",
    "province": "Bình Dương",
    "best_months": [
      1,
      2,
      3,
      4,
      12
    ],
    "tags": [
      "lake",
      "nature",
      "water",
      "photography",
      "eco_tourism"
    ],
    "coordinates": [
      106.536,
      11.277
    ]
  },
  {
    "name": "Công viên Thành Phố mới Bình Dương",
    "province": "Bình Dương",
    "best_months": [
      1,
      2,
      3,
      4,
      11,
      12
    ],
    "tags": [
      "park",
      "cityscape",
      "leisure",
      "green_space",
      "photography"
    ],
    "coordinates": [
      106.791,
      10.977
    ]
  },
  {
    "name": "Chùa Châu Thới",
    "province": "Bình Dương",
    "best_months": [
      1,
      2,
      3,
      4,
      8
    ],
    "tags": [
      "religion",
      "historical_site",
      "culture",
      "architecture"
    ],
    "coordinates": [
      106.682,
      10.734
    ]
  },
  {
    "name": "Núi Bà Rá",
    "province": "Bình Phước",
    "best_months": [
      1,
      2,
      3,
      4,
      12
    ],
    "tags": [
      "mountain",
      "nature",
      "trekking",
      "wildlife",
      "photography"
    ],
    "coordinates": [
      106.126,
      11.441
    ]
  },
  {
    "name": "Trảng cỏ Bù Lạch",
    "province": "Bình Phước",
    "best_months": [
      4,
      5,
      6,
      11,
      12
    ],
    "tags": [
      "grassland",
      "nature",
      "wildlife",
      "photography"
    ],
    "coordinates": [
      106.182,
      11.432
    ]
  },
  {
    "name": "Khu di tích Tà Thiết",
    "province": "Bình Phước",
    "best_months": [
      1,
      2,
      3,
      4,
      12
    ],
    "tags": [
      "historical_site",
      "culture",
      "war_heritage",
      "photography"
    ],
    "coordinates": [
      106.273,
      11.376
    ]
  },
  {
    "name": "Hồ Thác Mơ",
    "province": "Bình Phước",
    "best_months": [
      1,
      2,
      3,
      4,
      12
    ],
    "tags": [
      "lake",
      "nature",
      "photography",
      "water",
      "eco_tourism"
    ],
    "coordinates": [
      106.297,
      11.542
    ]
  },
  {
    "name": "Làng nghề điều Bình Phước",
    "province": "Bình Phước",
    "best_months": [
      2,
      3,
      4
    ],
    "tags": [
      "village",
      "culture",
      "local_people",
      "agriculture"
    ],
    "coordinates": [
      106.097,
      11.431
    ]
  },
  {
    "name": "Tháp Chàm Poshanư",
    "province": "Bình Thuận",
    "best_months": [
      1,
      2,
      3,
      4,
      7,
      10
    ],
    "tags": [
      "historical_site",
      "architecture",
      "culture",
      "cham"
    ],
    "coordinates": [
      108.249,
      10.981
    ]
  },
  {
    "name": "Hải đăng Kê Gà",
    "province": "Bình Thuận",
    "best_months": [
      1,
      2,
      3,
      4,
      12
    ],
    "tags": [
      "landmark",
      "sea",
      "beach",
      "photography",
      "historical_site"
    ],
    "coordinates": [
      108.261,
      10.822
    ]
  },
  {
    "name": "Bàu Trắng",
    "province": "Bình Thuận",
    "best_months": [
      1,
      2,
      3,
      4,
      6,
      7
    ],
    "tags": [
      "lake",
      "nature",
      "photography",
      "desert",
      "sand_dunes"
    ],
    "coordinates": [
      108.075,
      11.286
    ]
  },
  {
    "name": "Làng Chài Mũi Né",
    "province": "Bình Thuận",
    "best_months": [
      1,
      2,
      3,
      4,
      6,
      7
    ],
    "tags": [
      "village",
      "sea",
      "local_people",
      "photography",
      "culture"
    ],
    "coordinates": [
      108.273,
      10.965
    ]
  },
  {
    "name": "Hòn Rơm",
    "province": "Bình Thuận",
    "best_months": [
      1,
      2,
      3,
      4,
      6,
      7,
      12
    ],
    "tags": [
      "island",
      "beach",
      "sea",
      "photography",
      "nature"
    ],
    "coordinates": [
      108.278,
      10.939
    ]
  },
  {
    "name": "Mũi Cà Mau",
    "province": "Cà Mau",
    "best_months": [
      1,
      2,
      3,
      12
    ],
    "tags": [
      "cape",
      "sea",
      "nature",
      "photography",
      "wildlife"
    ],
    "coordinates": [
      105.148,
      8.690
    ]
  },
  {
    "name": "Vườn Quốc Gia U Minh Hạ",
    "province": "Cà Mau",
    "best_months": [
      1,
      2,
      3,
      4
    ],
    "tags": [
      "national_park",
      "wildlife",
      "nature",
      "eco_tourism",
      "forest"
    ],
    "coordinates": [
      105.130,
      9.154
    ]
  },
  {
    "name": "Hòn Đá Bạc",
    "province": "Cà Mau",
    "best_months": [
      1,
      2,
      3,
      4,
      12
    ],
    "tags": [
      "island",
      "sea",
      "photography",
      "nature",
      "beach"
    ],
    "coordinates": [
      105.143,
      8.860
    ]
  },
  {
    "name": "Đầm Thị Tường",
    "province": "Cà Mau",
    "best_months": [
      1,
      2,
      3,
      4,
      12
    ],
    "tags": [
      "lake",
      "nature",
      "wildlife",
      "eco_tourism",
      "photography"
    ],
    "coordinates": [
      105.051,
      9.076
    ]
  },
  {
    "name": "Đền Thờ Bác Hồ",
    "province": "Cà Mau",
    "best_months": [
      1,
      2,
      3,
      4,
      5
    ],
    "tags": [
      "historical_site",
      "culture",
      "religion",
      "photography"
    ],
    "coordinates": [
      105.141,
      8.549
    ]
  },
  {
    "name": "Chợ Nổi Cái Răng",
    "province": "Cần Thơ",
    "best_months": [
      1,
      2,
      3,
      4,
      5
    ],
    "tags": [
      "market",
      "culture",
      "local_people",
      "photography",
      "river"
    ],
    "coordinates": [
      105.787,
      10.085
    ]
  },
  {
    "name": "Cầu Cần Thơ",
    "province": "Cần Thơ",
    "best_months": [
      1,
      2,
      3,
      4,
      5,
      12
    ],
    "tags": [
      "landmark",
      "architecture",
      "bridge",
      "photography"
    ],
    "coordinates": [
      105.776,
      10.031
    ]
  },
  {
    "name": "Làng Du Lịch Sinh Thái Ông Đề",
    "province": "Bạc Liêu",
    "best_months": [
      1,
      2,
      3,
      4
    ],
    "tags": [
      "village",
      "eco_tourism",
      "local_people",
      "photography",
      "nature"
    ],
    "coordinates": [
      105.718,
      9.204
    ]
  },
  {
    "name": "Chùa Ông",
    "province": "Bạc Liêu",
    "best_months": [
      1,
      2,
      3,
      4,
      5
    ],
    "tags": [
      "religion",
      "historical_site",
      "culture",
      "architecture"
    ],
    "coordinates": [
      105.720,
      9.285
    ]
  },
  {
    "name": "Cồn Sơn",
    "province": "Cần Thơ",
    "best_months": [
      1,
      2,
      3,
      4,
      5
    ],
    "tags": [
      "island",
      "eco_tourism",
      "nature",
      "local_people",
      "river"
    ],
    "coordinates": [
      105.840,
      10.105
    ]
  },
  {
    "name": "Thác Bản Giốc",
    "province": "Cao Bằng",
    "best_months": [
      8,
      9,
      10
    ],
    "tags": [
      "waterfall",
      "nature",
      "photography",
      "eco_tourism"
    ],
    "coordinates": [
      106.442,
      22.833
    ]
  },
  {
    "name": "Động Ngườm Ngao",
    "province": "Cao Bằng",
    "best_months": [
      2,
      3,
      4,
      10,
      11
    ],
    "tags": [
      "cave",
      "nature",
      "photography",
      "eco_tourism"
    ],
    "coordinates": [
      106.424,
      22.839
    ]
  },
  {
    "name": "Núi Mắt Thần",
    "province": "Cao Bằng",
    "best_months": [
      3,
      4,
      10,
      11
    ],
    "tags": [
      "mountain",
      "nature",
      "trekking",
      "photography",
      "wildlife"
    ],
    "coordinates": [
      106.388,
      22.810
    ]
  },
  {
    "name": "Di tích rừng Trần Hưng Đạo",
    "province": "Hòa Bình",
    "best_months": [
      2,
      3,
      4,
      10,
      11
    ],
    "tags": [
      "historical_site",
      "culture",
      "nature",
      "photography"
    ],
    "coordinates": [
      105.546,
      20.491
    ]
  },
  {
    "name": "Làng rèn Phúc Sen",
    "province": "Quảng Ngãi",
    "best_months": [
      1,
      2,
      3,
      4
    ],
    "tags": [
      "village",
      "local_people",
      "culture",
      "photography"
    ],
    "coordinates": [
      106.021,
      13.357
    ]
  },
  {
    "name": "Bà Nà Hills",
    "province": "Đà Nẵng",
    "best_months": [
      3,
      4,
      5,
      6,
      7,
      8
    ],
    "tags": [
      "mountain",
      "theme_park",
      "tourism",
      "photography",
      "landmark"
    ],
    "coordinates": [
      107.754,
      15.957
    ]
  },
  {
    "name": "Cầu Rồng",
    "province": "Đà Nẵng",
    "best_months": [
      2,
      3,
      4,
      5,
      6,
      7,
      8
    ],
    "tags": [
      "landmark",
      "bridge",
      "architecture",
      "photography",
      "night_sky"
    ],
    "coordinates": [
      108.217,
      16.059
    ]
  },
  {
    "name": "Ngũ Hành Sơn",
    "province": "Đà Nẵng",
    "best_months": [
      2,
      3,
      4,
      5,
      6,
      7,
      8
    ],
    "tags": [
      "mountain",
      "nature",
      "cave",
      "photography",
      "religion"
    ],
    "coordinates": [
      108.250,
      16.033
    ]
  },
  {
    "name": "Bãi Biển Mỹ Khê",
    "province": "Đà Nẵng",
    "best_months": [
      2,
      3,
      4,
      5,
      6,
      7,
      8
    ],
    "tags": [
      "beach",
      "sea",
      "photography",
      "nature"
    ],
    "coordinates": [
      108.243,
      16.067
    ]
  },
  {
    "name": "Cầu Tình Yêu",
    "province": "Đà Nẵng",
    "best_months": [
      2,
      3,
      4,
      5,
      6,
      7,
      8
    ],
    "tags": [
      "landmark",
      "romantic",
      "bridge",
      "photography"
    ],
    "coordinates": [
      108.221,
      16.053
    ]
  },
  {
    "name": "Ao Bà Om",
    "province": "Trà Vinh",
    "best_months": [
      12,
      1,
      2,
      3,
      4
    ],
    "tags": [
      "lake",
      "nature",
      "eco_tourism",
      "photography"
    ],
    "coordinates": [
      106.353,
      9.917
    ]
  },
  {
    "name": "Chùa Hang",
    "province": "Quảng Bình",
    "best_months": [
      2,
      3,
      4,
      8,
      9
    ],
    "tags": [
      "religion",
      "cave",
      "photography",
      "historical_site"
    ],
    "coordinates": [
      106.538,
      17.515
    ]
  },
  {
    "name": "Bãi biển Ba Động",
    "province": "Phú Yên",
    "best_months": [
      2,
      3,
      4,
      5,
      6,
      7
    ],
    "tags": [
      "beach",
      "sea",
      "nature",
      "photography"
    ],
    "coordinates": [
      109.315,
      13.113
    ]
  },
  {
    "name": "Bảo tàng Văn hóa Khmer",
    "province": "Sóc Trăng",
    "best_months": [
      11,
      12,
      1,
      2,
      3,
      4
    ],
    "tags": [
      "museum",
      "culture",
      "historical_site",
      "photography"
    ],
    "coordinates": [
      105.977,
      9.602
    ]
  },
  {
    "name": "Chùa Vàm Rây",
    "province": "Sóc Trăng",
    "best_months": [
      11,
      12,
      1,
      2,
      3,
      4
    ],
    "tags": [
      "religion",
      "culture",
      "architecture",
      "photography"
    ],
    "coordinates": [
      105.931,
      9.557
    ]
  },
  {
    "name": "Thác Bản Ba",
    "province": "Tuyên Quang",
    "best_months": [
      3,
      4,
      5,
      6,
      7,
      8,
      9
    ],
    "tags": [
      "waterfall",
      "nature",
      "eco_tourism",
      "photography"
    ],
    "coordinates": [
      105.279,
      22.155
    ]
  },
  {
    "name": "Hồ Thủy Điện Tuyên Quang",
    "province": "Tuyên Quang",
    "best_months": [
      3,
      4,
      5,
      6,
      7,
      8,
      9
    ],
    "tags": [
      "lake",
      "nature",
      "photography",
      "eco_tourism"
    ],
    "coordinates": [
      105.352,
      21.846
    ]
  },
  {
    "name": "Đền Hạ - Đền Thượng - Đền Ỷ La",
    "province": "Quảng Ninh",
    "best_months": [
      1,
      2,
      3,
      4
    ],
    "tags": [
      "religion",
      "historical_site",
      "culture",
      "photography"
    ],
    "coordinates": [
      107.389,
      21.345
    ]
  },
  {
    "name": "Suối khoáng Mỹ Lâm",
    "province": "Tuyên Quang",
    "best_months": [
      1,
      2,
      3,
      10,
      11,
      12
    ],
    "tags": [
      "hot_spring",
      "nature",
      "eco_tourism",
      "health",
      "photography"
    ],
    "coordinates": [
      105.313,
      22.158
    ]
  },
  {
    "name": "Thác Khuổi Nhi",
    "province": "Cao Bằng",
    "best_months": [
      4,
      5,
      6,
      7,
      8,
      9
    ],
    "tags": [
      "waterfall",
      "nature",
      "eco_tourism",
      "photography"
    ],
    "coordinates": [
      106.625,
      22.392
    ]
  },
  {
    "name": "Cù Lao An Bình",
    "province": "Vĩnh Long",
    "best_months": [
      1,
      2,
      3,
      4,
      5,
      11,
      12
    ],
    "tags": [
      "island",
      "eco_tourism",
      "nature",
      "river",
      "local_people"
    ],
    "coordinates": [
      105.998,
      10.259
    ]
  },
  {
    "name": "Chùa Tiên Châu",
    "province": "Bến Tre",
    "best_months": [
      1,
      2,
      3,
      4,
      5,
      11,
      12
    ],
    "tags": [
      "religion",
      "culture",
      "historical_site",
      "architecture"
    ],
    "coordinates": [
      106.312,
      10.249
    ]
  },
  {
    "name": "Cầu Mỹ Thuận",
    "province": "Vĩnh Long",
    "best_months": [
      1,
      2,
      3,
      4,
      5,
      11,
      12
    ],
    "tags": [
      "bridge",
      "landmark",
      "architecture",
      "photography"
    ],
    "coordinates": [
      105.937,
      10.268
    ]
  },
  {
    "name": "Khu du lịch Vinh Sang",
    "province": "Vĩnh Long",
    "best_months": [
      1,
      2,
      3,
      4,
      5,
      11,
      12
    ],
    "tags": [
      "eco_tourism",
      "nature",
      "family_fun",
      "local_people"
    ],
    "coordinates": [
      105.968,
      10.316
    ]
  },
  {
    "name": "Văn Thánh Miếu",
    "province": "Phú Thọ",
    "best_months": [
      1,
      2,
      3,
      9,
      10,
      11,
      12
    ],
    "tags": [
      "historical_site",
      "culture",
      "architecture",
      "religion"
    ],
    "coordinates": [
      105.163,
      21.298
    ]
  },
  {
    "name": "Tam Đảo",
    "province": "Vĩnh Phúc",
    "best_months": [
      3,
      4,
      5,
      9,
      10,
      11
    ],
    "tags": [
      "mountain",
      "nature",
      "eco_tourism",
      "photography",
      "trekking"
    ],
    "coordinates": [
      105.496,
      21.457
    ]
  },
  {
    "name": "Hồ Đại Lải",
    "province": "Vĩnh Phúc",
    "best_months": [
      1,
      2,
      3,
      4,
      5,
      9
    ],
    "tags": [
      "lake",
      "nature",
      "eco_tourism",
      "photography"
    ],
    "coordinates": [
      105.467,
      21.277
    ]
  },
  {
    "name": "Làng gốm Hương Canh",
    "province": "Vĩnh Phúc",
    "best_months": [
      1,
      2,
      3,
      4,
      5,
      10,
      11
    ],
    "tags": [
      "village",
      "local_people",
      "culture",
      "craft",
      "photography"
    ],
    "coordinates": [
      105.636,
      21.291
    ]
  },
  {
    "name": "Khu du lịch FLC Vĩnh Thịnh",
    "province": "Vĩnh Phúc",
    "best_months": [
      4,
      5,
      6,
      7,
      8,
      9
    ],
    "tags": [
      "resort",
      "eco_tourism",
      "family_fun",
      "photography",
      "nature"
    ],
    "coordinates": [
      105.451,
      21.133
    ]
  },
  {
    "name": "Khu du lịch sinh thái Đầm Vạc",
    "province": "Vĩnh Phúc",
    "best_months": [
      5,
      6,
      7,
      8
    ],
    "tags": [
      "eco_tourism",
      "nature",
      "photography",
      "lake",
      "wildlife"
    ],
    "coordinates": [
      105.407,
      21.259
    ]
  },
  {
    "name": "Ruộng bậc thang Mù Cang Chải",
    "province": "Yên Bái",
    "best_months": [
      9,
      10,
      11
    ],
    "tags": [
      "rice_field",
      "nature",
      "photography",
      "trekking"
    ],
    "coordinates": [
      104.274,
      21.528
    ]
  },
  {
    "name": "Hồ Thác Bà",
    "province": "Yên Bái",
    "best_months": [
      1,
      2,
      3,
      4,
      5,
      9
    ],
    "tags": [
      "lake",
      "nature",
      "eco_tourism",
      "photography"
    ],
    "coordinates": [
      104.434,
      21.804
    ]
  },
  {
    "name": "Suối Giàng",
    "province": "Yên Bái",
    "best_months": [
      3,
      4,
      5,
      6,
      9,
      10
    ],
    "tags": [
      "waterfall",
      "nature",
      "eco_tourism",
      "photography"
    ],
    "coordinates": [
      104.348,
      21.413
    ]
  },
  {
    "name": "Bản Lìm Mông",
    "province": "Lào Cai",
    "best_months": [
      3,
      4,
      5,
      6,
      9,
      10
    ],
    "tags": [
      "village",
      "local_people",
      "nature",
      "culture",
      "trekking"
    ],
    "coordinates": [
      103.978,
      22.461
    ]
  },
  {
    "name": "Động Thiên Cung",
    "province": "Quảng Ninh",
    "best_months": [
      4,
      5,
      6,
      7,
      8,
      9
    ],
    "tags": [
      "cave",
      "nature",
      "photography",
      "eco_tourism"
    ],
    "coordinates": [
      107.216,
      20.933
    ]
  },
  {
    "name": "Buôn Đôn",
    "province": "Đắk Lắk",
    "best_months": [
      1,
      2,
      3,
      4,
      5,
      6,
      7,
      8,
      9
    ],
    "tags": [
      "village",
      "local_people",
      "culture",
      "wildlife",
      "adventure"
    ],
    "coordinates": [
      104.786,
      12.970
    ]
  },
  {
    "name": "Hồ Lắk",
    "province": "Đắk Lắk",
    "best_months": [
      1,
      2,
      3,
      4,
      5,
      6,
      7,
      8,
      9
    ],
    "tags": [
      "lake",
      "nature",
      "eco_tourism",
      "wildlife",
      "photography"
    ],
    "coordinates": [
      104.625,
      12.229
    ]
  },
  {
    "name": "Thác Dray Nur",
    "province": "Đắk Lắk",
    "best_months": [
      1,
      2,
      3,
      4,
      5,
      6,
      7,
      8,
      9
    ],
    "tags": [
      "waterfall",
      "nature",
      "eco_tourism",
      "photography"
    ],
    "coordinates": [
      104.826,
      12.539
    ]
  },
  {
    "name": "Bảo tàng cà phê Thế giới",
    "province": "Đắk Lắk",
    "best_months": [
      1,
      2,
      3,
      4,
      5,
      6,
      7,
      8,
      9,
      10
    ],
    "tags": [
      "museum",
      "culture",
      "history",
      "coffee",
      "photography"
    ],
    "coordinates": [
      104.774,
      12.703
    ]
  },
  {
    "name": "Khu du lịch Ko Tam",
    "province": "Đắk Lắk",
    "best_months": [
      1,
      2,
      3,
      4,
      5,
      6,
      7,
      8,
      9
    ],
    "tags": [
      "eco_tourism",
      "nature",
      "wildlife",
      "culture"
    ],
    "coordinates": [
      104.888,
      12.542
    ]
  },
  {
    "name": "Công viên địa chất Đắk Nông",
    "province": "Đắk Nông",
    "best_months": [
      1,
      2,
      3,
      4,
      5,
      6,
      7,
      8,
      9,
      10
    ],
    "tags": [
      "national_park",
      "nature",
      "geology",
      "photography"
    ],
    "coordinates": [
      107.654,
      12.274
    ]
  },
  {
    "name": "Thác Dray Sap",
    "province": "Đắk Lắk",
    "best_months": [
      1,
      2,
      3,
      4,
      5,
      6,
      7,
      8,
      9
    ],
    "tags": [
      "waterfall",
      "nature",
      "eco_tourism",
      "photography"
    ],
    "coordinates": [
      104.860,
      12.440
    ]
  },
  {
    "name": "Hang động Chư Bluk",
    "province": "Kon Tum",
    "best_months": [
      1,
      2,
      3,
      4,
      5,
      6,
      7,
      8,
      9
    ],
    "tags": [
      "cave",
      "nature",
      "eco_tourism",
      "adventure",
      "photography"
    ],
    "coordinates": [
      108.062,
      14.516
    ]
  },
  {
    "name": "Hồ Ea Snô",
    "province": "Đắk Lắk",
    "best_months": [
      1,
      2,
      3,
      4,
      5,
      6,
      7,
      8,
      9
    ],
    "tags": [
      "lake",
      "nature",
      "eco_tourism",
      "photography"
    ],
    "coordinates": [
      104.511,
      12.617
    ]
  },
  {
    "name": "Khu bảo tồn thiên nhiên Nâm Nung",
    "province": "Đắk Nông",
    "best_months": [
      1,
      2,
      3,
      4,
      5,
      6,
      7,
      8,
      9
    ],
    "tags": [
      "national_park",
      "wildlife",
      "nature",
      "eco_tourism",
      "photography"
    ],
    "coordinates": [
      107.843,
      12.454
    ]
  },
  {
    "name": "Đồi A1",
    "province": "Điện Biên",
    "best_months": [
      1,
      2,
      3,
      4,
      5,
      6,
      9,
      10,
      11
    ],
    "tags": [
      "historical_site",
      "culture",
      "war_memorial",
      "landmark"
    ],
    "coordinates": [
      103.012,
      21.402
    ]
  },
  {
    "name": "Hầm De Castries",
    "province": "Điện Biên",
    "best_months": [
      1,
      2,
      3,
      4,
      5,
      6,
      9,
      10,
      11
    ],
    "tags": [
      "historical_site",
      "war_memorial",
      "culture",
      "photography"
    ],
    "coordinates": [
      103.019,
      21.406
    ]
  },
  {
    "name": "Bảo tàng chiến thắng Điện Biên Phủ",
    "province": "Điện Biên",
    "best_months": [
      1,
      2,
      3,
      4,
      5,
      6,
      9,
      10,
      11
    ],
    "tags": [
      "museum",
      "history",
      "war_memorial",
      "culture"
    ],
    "coordinates": [
      103.014,
      21.408
    ]
  },
  {
    "name": "Cánh đồng Mường Thanh",
    "province": "Điện Biên",
    "best_months": [
      1,
      2,
      3,
      4,
      5,
      6,
      9,
      10,
      11
    ],
    "tags": [
      "nature",
      "landscape",
      "photography",
      "culture"
    ],
    "coordinates": [
      103.040,
      21.386
    ]
  },
  {
    "name": "Tượng đài chiến thắng Điện Biên Phủ",
    "province": "Điện Biên",
    "best_months": [
      1,
      2,
      3,
      4,
      5,
      6,
      9,
      10,
      11
    ],
    "tags": [
      "war_memorial",
      "historical_site",
      "culture",
      "landmark"
    ],
    "coordinates": [
      103.018,
      21.408
    ]
  },
  {
    "name": "Vườn quốc gia Cát Tiên",
    "province": "Đồng Nai",
    "best_months": [
      1,
      2,
      3,
      4,
      5,
      6,
      7,
      8
    ],
    "tags": [
      "national_park",
      "wildlife",
      "nature",
      "eco_tourism",
      "photography"
    ],
    "coordinates": [
      106.036,
      11.529
    ]
  },
  {
    "name": "Khu du lịch Bửu Long",
    "province": "Đồng Nai",
    "best_months": [
      1,
      2,
      3,
      4,
      5,
      6,
      7,
      8,
      9
    ],
    "tags": [
      "eco_tourism",
      "lake",
      "nature",
      "family_fun",
      "photography"
    ],
    "coordinates": [
      106.592,
      10.926
    ]
  },
  {
    "name": "Hồ Trị An",
    "province": "Đồng Nai",
    "best_months": [
      1,
      2,
      3,
      4,
      5,
      6,
      7,
      8,
      9,
      10,
      11
    ],
    "tags": [
      "lake",
      "nature",
      "eco_tourism",
      "photography",
      "wildlife"
    ],
    "coordinates": [
      107.088,
      10.918
    ]
  },
  {
    "name": "Đảo Ó",
    "province": "Đồng Nai",
    "best_months": [
      1,
      2,
      3,
      4,
      5,
      6,
      7,
      8,
      9,
      10
    ],
    "tags": [
      "island",
      "nature",
      "eco_tourism",
      "wildlife",
      "photography"
    ],
    "coordinates": [
      107.114,
      10.930
    ]
  },
  {
    "name": "Thác Giang Điền",
    "province": "Đồng Nai",
    "best_months": [
      1,
      2,
      3,
      4,
      5,
      6,
      7,
      8,
      9,
      10
    ],
    "tags": [
      "waterfall",
      "nature",
      "eco_tourism",
      "photography"
    ],
    "coordinates": [
      106.838,
      10.999
    ]
  },
  {
    "name": "Vườn quốc gia Tràm Chim",
    "province": "Đồng Tháp",
    "best_months": [
      12,
      1,
      2,
      3,
      4,
      5,
      6
    ],
    "tags": [
      "national_park",
      "wildlife",
      "nature",
      "eco_tourism",
      "photography"
    ],
    "coordinates": [
      105.416,
      10.342
    ]
  },
  {
    "name": "Làng hoa Sa Đéc",
    "province": "Đồng Tháp",
    "best_months": [
      12,
      1,
      2,
      3,
      4,
      5,
      6
    ],
    "tags": [
      "flower_field",
      "nature",
      "culture",
      "agriculture",
      "photography"
    ],
    "coordinates": [
      105.729,
      10.307
    ]
  },
  {
    "name": "Khu di tích Xẻo Quýt",
    "province": "Đồng Tháp",
    "best_months": [
      1,
      2,
      3,
      4,
      5,
      6
    ],
    "tags": [
      "historical_site",
      "nature",
      "eco_tourism",
      "culture"
    ],
    "coordinates": [
      105.727,
      10.285
    ]
  },
  {
    "name": "Lăng cụ Nguyễn Sinh Sắc",
    "province": "Đồng Tháp",
    "best_months": [
      1,
      2,
      3,
      4,
      5
    ],
    "tags": [
      "historical_site",
      "culture",
      "landmark"
    ],
    "coordinates": [
      105.732,
      10.277
    ]
  },
  {
    "name": "Chợ Cao Lãnh",
    "province": "Đồng Tháp",
    "best_months": [
      1,
      2,
      3,
      4,
      5,
      6,
      7,
      8,
      9
    ],
    "tags": [
      "market",
      "culture",
      "local_people",
      "food"
    ],
    "coordinates": [
      105.616,
      10.453
    ]
  },
  {
    "name": "Biển Hồ",
    "province": "Gia Lai",
    "best_months": [
      1,
      2,
      3,
      4,
      5,
      6,
      7,
      8,
      9,
      10,
      11,
      12
    ],
    "tags": [
      "lake",
      "nature",
      "eco_tourism",
      "photography"
    ],
    "coordinates": [
      108.191,
      13.954
    ]
  },
  {
    "name": "Thác Phú Cường",
    "province": "Bình Phước",
    "best_months": [
      1,
      2,
      3,
      4,
      5,
      6
    ],
    "tags": [
      "waterfall",
      "nature",
      "eco_tourism",
      "photography"
    ],
    "coordinates": [
      106.857,
      11.413
    ]
  },
  {
    "name": "Chùa Minh Thành",
    "province": "Bình Dương",
    "best_months": [
      1,
      2,
      3,
      4,
      5,
      6,
      7,
      8,
      9,
      10,
      11,
      12
    ],
    "tags": [
      "temple",
      "culture",
      "photography"
    ],
    "coordinates": [
      106.651,
      11.029
    ]
  },
  {
    "name": "Quảng trường Đại Đoàn Kết",
    "province": "Gia Lai",
    "best_months": [
      11,
      12,
      1,
      2,
      3,
      4
    ],
    "tags": [
      "landmark",
      "cityscape",
      "historical_site"
    ],
    "coordinates": [
      108.013,
      13.982
    ]
  },
  {
    "name": "Đồi chè Bàu Cạn",
    "province": "Bình Thuận",
    "best_months": [
      12,
      1,
      2,
      3,
      4
    ],
    "tags": [
      "tea_field",
      "nature",
      "agriculture",
      "photography"
    ],
    "coordinates": [
      108.241,
      11.745
    ]
  },
  {
    "name": "Cột cờ Lũng Cú",
    "province": "Hà Giang",
    "best_months": [
      9,
      10,
      11
    ],
    "tags": [
      "landmark",
      "culture",
      "history",
      "photography"
    ],
    "coordinates": [
      105.229,
      23.161
    ]
  },
  {
    "name": "Đèo Mã Pí Lèng",
    "province": "Hà Giang",
    "best_months": [
      9,
      10,
      11,
      12
    ],
    "tags": [
      "mountain",
      "landmark",
      "scenic_route",
      "trekking",
      "photography"
    ],
    "coordinates": [
      105.342,
      23.141
    ]
  },
  {
    "name": "Phố cổ Đồng Văn",
    "province": "Hà Giang",
    "best_months": [
      9,
      10,
      11
    ],
    "tags": [
      "old_town",
      "historical_site",
      "culture",
      "architecture",
      "photography"
    ],
    "coordinates": [
      105.296,
      23.148
    ]
  },
  {
    "name": "Hẻm Tu Sản",
    "province": "Hà Giang",
    "best_months": [
      9,
      10,
      11
    ],
    "tags": [
      "canyon",
      "nature",
      "photography",
      "trekking"
    ],
    "coordinates": [
      105.280,
      23.157
    ]
  },
  {
    "name": "Dinh Vua Mèo",
    "province": "Hà Giang",
    "best_months": [
      9,
      10,
      11
    ],
    "tags": [
      "historical_site",
      "landmark",
      "architecture",
      "culture"
    ],
    "coordinates": [
      105.360,
      23.255
    ]
  },
  {
    "name": "Chùa Tam Chúc",
    "province": "Hà Nam",
    "best_months": [
      1,
      2,
      3,
      4,
      5
    ],
    "tags": [
      "temple",
      "landmark",
      "culture",
      "religion",
      "architecture"
    ],
    "coordinates": [
      105.691,
      20.481
    ]
  },
  {
    "name": "Đền Trần Thương",
    "province": "Hà Nam",
    "best_months": [
      1,
      2,
      3,
      4,
      5,
      6
    ],
    "tags": [
      "historical_site",
      "culture",
      "religion"
    ],
    "coordinates": [
      105.611,
      20.304
    ]
  },
  {
    "name": "Hang Luồn",
    "province": "Hạ Long",
    "best_months": [
      4,
      5,
      6,
      7,
      8,
      9
    ],
    "tags": [
      "cave",
      "nature",
      "eco_tourism",
      "photography"
    ],
    "coordinates": [
      107.087,
      20.956
    ]
  },
  {
    "name": "Đền Lảnh Giang",
    "province": "Bắc Giang",
    "best_months": [
      1,
      2,
      3,
      4,
      5
    ],
    "tags": [
      "historical_site",
      "culture",
      "religion",
      "landmark"
    ],
    "coordinates": [
      106.519,
      21.234
    ]
  },
  {
    "name": "Làng Vũ Đại",
    "province": "Hà Nam",
    "best_months": [
      9,
      10,
      11
    ],
    "tags": [
      "village",
      "culture",
      "literature",
      "historical_site"
    ],
    "coordinates": [
      106.185,
      20.693
    ]
  },
  {
    "name": "Lăng Chủ tịch Hồ Chí Minh",
    "province": "Hà Nội",
    "best_months": [
      9,
      10,
      11
    ],
    "tags": [
      "historical_site",
      "landmark",
      "culture",
      "political_history"
    ],
    "coordinates": [
      105.834,
      21.037
    ]
  },
  {
    "name": "Hồ Gươm",
    "province": "Hà Nội",
    "best_months": [
      9,
      10,
      11
    ],
    "tags": [
      "lake",
      "landmark",
      "culture",
      "cityscape",
      "photography"
    ],
    "coordinates": [
      105.854,
      21.028
    ]
  },
  {
    "name": "Văn Miếu - Quốc Tử Giám",
    "province": "Hà Nội",
    "best_months": [
      9,
      10,
      11
    ],
    "tags": [
      "historical_site",
      "culture",
      "education",
      "landmark",
      "architecture"
    ],
    "coordinates": [
      105.832,
      21.027
    ]
  },
  {
    "name": "Hoàng thành Thăng Long",
    "province": "Hà Nội",
    "best_months": [
      9,
      10,
      11
    ],
    "tags": [
      "historical_site",
      "culture",
      "landmark",
      "archaeology",
      "architecture"
    ],
    "coordinates": [
      105.852,
      21.037
    ]
  },
  {
    "name": "Cầu Long Biên",
    "province": "Hà Nội",
    "best_months": [
      9,
      10,
      11
    ],
    "tags": [
      "landmark",
      "historical_site",
      "architecture",
      "photography"
    ],
    "coordinates": [
      105.854,
      21.037
    ]
  },
  {
    "name": "Ngã ba Đồng Lộc",
    "province": "Hà Tĩnh",
    "best_months": [
      4,
      5,
      6,
      7,
      8
    ],
    "tags": [
      "historical_site",
      "memorial",
      "war_history",
      "landmark"
    ],
    "coordinates": [
      105.810,
      18.103
    ]
  },
  {
    "name": "Chùa Hương Tích",
    "province": "Hà Tĩnh",
    "best_months": [
      1,
      2,
      3,
      4,
      5,
      6
    ],
    "tags": [
      "temple",
      "culture",
      "religion",
      "landmark"
    ],
    "coordinates": [
      105.450,
      20.215
    ]
  },
  {
    "name": "Biển Thiên Cầm",
    "province": "Hà Tĩnh",
    "best_months": [
      5,
      6,
      7,
      8,
      9
    ],
    "tags": [
      "beach",
      "nature",
      "relaxation",
      "photography"
    ],
    "coordinates": [
      105.440,
      19.103
    ]
  },
  {
    "name": "Khu di tích Nguyễn Du",
    "province": "Hà Tĩnh",
    "best_months": [
      1,
      2,
      3,
      4,
      5,
      6
    ],
    "tags": [
      "historical_site",
      "literature",
      "culture",
      "memorial"
    ],
    "coordinates": [
      105.416,
      19.091
    ]
  },
  {
    "name": "Đèo Ngang",
    "province": "Hà Tĩnh",
    "best_months": [
      9,
      10,
      11
    ],
    "tags": [
      "mountain",
      "scenic_route",
      "nature",
      "photography"
    ],
    "coordinates": [
      105.416,
      19.161
    ]
  },
  {
    "name": "Đảo Cò Chi Lăng Nam",
    "province": "Hải Dương",
    "best_months": [
      3,
      4,
      5,
      6,
      7,
      8,
      9
    ],
    "tags": [
      "island",
      "nature",
      "wildlife",
      "birdwatching"
    ],
    "coordinates": [
      106.296,
      20.850
    ]
  },
  {
    "name": "Chùa Côn Sơn",
    "province": "Hải Dương",
    "best_months": [
      1,
      2,
      3,
      4,
      5
    ],
    "tags": [
      "temple",
      "culture",
      "religion",
      "historical_site"
    ],
    "coordinates": [
      106.270,
      20.897
    ]
  },
  {
    "name": "Làng rối nước Thanh Hải",
    "province": "Hải Dương",
    "best_months": [
      3,
      4,
      5,
      6,
      7
    ],
    "tags": [
      "culture",
      "tradition",
      "village",
      "performance_art"
    ],
    "coordinates": [
      106.283,
      20.853
    ]
  },
  {
    "name": "Đền Kiếp Bạc",
    "province": "Hải Dương",
    "best_months": [
      3,
      4,
      5,
      6
    ],
    "tags": [
      "historical_site",
      "culture",
      "religion",
      "landmark"
    ],
    "coordinates": [
      106.163,
      20.910
    ]
  },
  {
    "name": "Chợ Đông Ngô Quyền",
    "province": "Hải Phòng",
    "best_months": [
      1,
      2,
      3,
      4,
      5,
      6,
      7,
      8,
      9,
      10,
      11,
      12
    ],
    "tags": [
      "market",
      "culture",
      "local_life",
      "historical_site"
    ],
    "coordinates": [
      106.674,
      20.862
    ]
  },
  {
    "name": "Đồ Sơn",
    "province": "Hải Phòng",
    "best_months": [
      5,
      6,
      7,
      8,
      9
    ],
    "tags": [
      "beach",
      "nature",
      "tourism",
      "relaxation"
    ],
    "coordinates": [
      106.684,
      20.828
    ]
  },
  {
    "name": "Cát Bà",
    "province": "Hải Phòng",
    "best_months": [
      5,
      6,
      7,
      8,
      9
    ],
    "tags": [
      "island",
      "beach",
      "nature",
      "eco_tourism",
      "photography"
    ],
    "coordinates": [
      107.050,
      20.727
    ]
  },
  {
    "name": "Bến Nghiêng - Bến K15",
    "province": "Hậu Giang",
    "best_months": [
      10,
      11,
      12
    ],
    "tags": [
      "historical_site",
      "river",
      "culture",
      "tourism"
    ],
    "coordinates": [
      105.427,
      9.762
    ]
  },
  {
    "name": "Hải đăng Hòn Dấu",
    "province": "Hải Phòng",
    "best_months": [
      5,
      6,
      7,
      8
    ],
    "tags": [
      "landmark",
      "lighthouse",
      "sea",
      "nature"
    ],
    "coordinates": [
      107.061,
      20.811
    ]
  },
  {
    "name": "Cầu Hoàng Văn Thụ",
    "province": "Hải Phòng",
    "best_months": [
      1,
      2,
      3,
      4,
      5,
      6,
      7,
      8,
      9,
      10,
      11,
      12
    ],
    "tags": [
      "landmark",
      "bridge",
      "urban",
      "architecture"
    ],
    "coordinates": [
      106.691,
      20.853
    ]
  },
  {
    "name": "Khu du lịch Lung Ngọc Hoàng",
    "province": "Hậu Giang",
    "best_months": [
      11,
      12
    ],
    "tags": [
      "eco_tourism",
      "nature",
      "wildlife",
      "forest",
      "wetland"
    ],
    "coordinates": [
      105.150,
      9.300
    ]
  },
  {
    "name": "Chợ nổi Ngã Bảy",
    "province": "Hậu Giang",
    "best_months": [
      1,
      2,
      3,
      4,
      5,
      6,
      7,
      8,
      9,
      10
    ],
    "tags": [
      "market",
      "local_life",
      "culture",
      "tourism"
    ],
    "coordinates": [
      105.637,
      9.726
    ]
  },
  {
    "name": "Công viên giải trí Vinpearl Hậu Giang",
    "province": "Hậu Giang",
    "best_months": [
      1,
      2,
      3,
      4,
      5,
      6,
      7,
      8,
      9,
      10,
      11,
      12
    ],
    "tags": [
      "amusement_park",
      "entertainment",
      "family",
      "tourism"
    ],
    "coordinates": [
      105.453,
      9.592
    ]
  },
  {
    "name": "Vườn cò Tân Long",
    "province": "Hậu Giang",
    "best_months": [
      9,
      10,
      11,
      12
    ],
    "tags": [
      "wildlife",
      "nature",
      "birdwatching",
      "eco_tourism"
    ],
    "coordinates": [
      105.617,
      9.644
    ]
  },
  {
    "name": "Sông Cái Lớn",
    "province": "Hậu Giang",
    "best_months": [
      11,
      12
    ],
    "tags": [
      "river",
      "nature",
      "scenic",
      "photography"
    ],
    "coordinates": [
      105.688,
      9.707
    ]
  },
  {
    "name": "Thung Nai",
    "province": "Hòa Bình",
    "best_months": [
      9,
      10,
      11,
      12
    ],
    "tags": [
      "lake",
      "nature",
      "scenic",
      "trekking",
      "photography"
    ],
    "coordinates": [
      105.510,
      20.804
    ]
  },
  {
    "name": "Mai Châu",
    "province": "Hòa Bình",
    "best_months": [
      9,
      10,
      11
    ],
    "tags": [
      "village",
      "nature",
      "culture",
      "trekking",
      "scenic"
    ],
    "coordinates": [
      105.352,
      20.695
    ]
  },
  {
    "name": "Động Đá Bạc",
    "province": "Hòa Bình",
    "best_months": [
      4,
      5,
      6,
      7
    ],
    "tags": [
      "cave",
      "nature",
      "scenic",
      "adventure"
    ],
    "coordinates": [
      105.361,
      20.702
    ]
  },
  {
    "name": "Cửu thác Tú Sơn",
    "province": "Hòa Bình",
    "best_months": [
      5,
      6,
      7,
      8
    ],
    "tags": [
      "waterfall",
      "nature",
      "trekking",
      "scenic"
    ],
    "coordinates": [
      105.381,
      20.686
    ]
  },
  {
    "name": "Đền Thác Bờ",
    "province": "Hòa Bình",
    "best_months": [
      1,
      2,
      3,
      4,
      5,
      6,
      7,
      8
    ],
    "tags": [
      "temple",
      "historical_site",
      "culture",
      "religion"
    ],
    "coordinates": [
      105.600,
      20.654
    ]
  },
  {
    "name": "Phố Hiến",
    "province": "Hưng Yên",
    "best_months": [
      1,
      2,
      3,
      4,
      5,
      6,
      7,
      8,
      9,
      10,
      11,
      12
    ],
    "tags": [
      "historical_site",
      "old_town",
      "culture",
      "architecture"
    ],
    "coordinates": [
      106.073,
      20.750
    ]
  },
  {
    "name": "Chùa Chuông",
    "province": "Hưng Yên",
    "best_months": [
      1,
      2,
      3,
      4,
      5
    ],
    "tags": [
      "temple",
      "historical_site",
      "culture",
      "religion"
    ],
    "coordinates": [
      106.114,
      20.747
    ]
  },
  {
    "name": "Làng nghề đúc đồng Lộng Thượng",
    "province": "Hưng Yên",
    "best_months": [
      3,
      4,
      5,
      6,
      7
    ],
    "tags": [
      "village",
      "culture",
      "traditional_craft",
      "history"
    ],
    "coordinates": [
      106.103,
      20.746
    ]
  },
  {
    "name": "Đền Phù Ủng",
    "province": "Hưng Yên",
    "best_months": [
      3,
      4,
      5,
      6
    ],
    "tags": [
      "temple",
      "historical_site",
      "culture",
      "religion"
    ],
    "coordinates": [
      106.118,
      20.743
    ]
  },
  {
    "name": "Đình làng Nôm",
    "province": "Hưng Yên",
    "best_months": [
      4,
      5,
      6,
      9,
      10
    ],
    "tags": [
      "historical_site",
      "culture",
      "architecture",
      "village"
    ],
    "coordinates": [
      106.076,
      20.744
    ]
  }
]